,prefCode,cityCode,cityName,cityAlphabet,latitude,longitude,bigCityFlag
0,1,01100,札幌市,Sapporo-shi,43.0351,141.2049,2
1,1,01101,札幌市中央区,Sapporo-shi Chuo-ku,43.04223,141.319722,1
2,1,01102,札幌市北区,Sapporo-shi Kita-ku,43.157077,141.39018,1
3,1,01103,札幌市東区,Sapporo-shi Higashi-ku,43.120789,141.394435,1
4,1,01104,札幌市白石区,Sapporo-shi Shiroishi-ku,43.071628,141.437011,1
5,1,01105,札幌市豊平区,Sapporo-shi Toyohira-ku,43.049506,141.365176,1
6,1,01106,札幌市南区,Sapporo-shi Minami-ku,42.946783,141.328331,1
7,1,01107,札幌市西区,Sapporo-shi Nishi-ku,43.079715,141.308758,1
8,1,01108,札幌市厚別区,Sapporo-shi Atsubetsu-ku,43.022577,141.482606,1
9,1,01109,札幌市手稲区,Sapporo-shi Teine-ku,43.145554,141.239503,1
10,1,01110,札幌市清田区,Sapporo-shi Kiyota-ku,42.932893,141.416259,1
11,1,01202,函館市,Hakodate-shi,41.757089,140.716562,0
12,1,01203,小樽市,Otaru-shi,43.191426,141.004925,0
13,1,01204,旭川市,Asahikawa-shi,43.77494,142.368767,0
14,1,01205,室蘭市,Muroran-shi,42.3855,140.936264,0
15,1,01206,釧路市,Kushiro-shi,43.028943,144.391342,0
16,1,01207,帯広市,Obihiro-shi,42.87171,143.217217,0
17,1,01208,北見市,Kitami-shi,43.797478,143.756101,0
18,1,01209,夕張市,Yubari-shi,43.080613,141.965544,0
19,1,01210,岩見沢市,Iwamizawa-shi,43.188931,141.755694,0
20,1,01211,網走市,Abashiri-shi,43.890257,144.275215,0
21,1,01212,留萌市,Rumoi-shi,43.94527,141.637368,0
22,1,01213,苫小牧市,Tomakomai-shi,42.630407,141.573662,0
23,1,01214,稚内市,Wakkanai-shi,45.382922,141.707212,0
24,1,01215,美唄市,Bibai-shi,43.300004,141.885852,0
25,1,01216,芦別市,Ashibetsu-shi,43.509189,142.227726,0
26,1,01217,江別市,Ebetsu-shi,43.113328,141.560867,0
27,1,01218,赤平市,Akabira-shi,43.540658,142.048219,0
28,1,01219,紋別市,Mombetsu-shi,44.340211,143.344835,0
29,1,01220,士別市,Shibetsu-shi,44.099007,142.781584,0
30,1,01221,名寄市,Nayoro-shi,44.339032,142.416811,0
31,1,01222,三笠市,Mikasa-shi,43.243846,141.881371,0
32,1,01223,根室市,Nemuro-shi,43.367617,146.003754,0
33,1,01224,千歳市,Chitose-shi,42.825407,141.65672,0
34,1,01225,滝川市,Takikawa-shi,43.568725,141.910629,0
35,1,01226,砂川市,Sunagawa-shi,43.521098,141.973009,0
36,1,01227,歌志内市,Utashinai-shi,43.520879,142.020838,0
37,1,01228,深川市,Fukagawa-shi,43.722666,142.047411,0
38,1,01229,富良野市,Furano-shi,43.352004,142.359884,0
39,1,01230,登別市,Noboribetsu-shi,42.398287,141.080418,0
40,1,01231,恵庭市,Eniwa-shi,42.880707,141.586875,0
41,1,01233,伊達市,Date-shi,42.465988,140.867344,0
42,1,01234,北広島市,Kitahiroshima-shi,42.97227,141.5635,0
43,1,01235,石狩市,Ishikari-shi,43.478768,141.481144,0
44,1,01236,北斗市,Hokuto-shi,41.834548,140.667831,0
45,1,01303,石狩郡当別町,Ishikari-gun Tobetsu-cho,43.323519,141.556801,0
46,1,01304,石狩郡新篠津村,Ishikari-gun Shinshinotsu-mura,43.206845,141.635256,0
47,1,01331,松前郡松前町,Matsumae-gun Matsumae-cho,41.492914,140.073625,0
48,1,01332,松前郡福島町,Matsumae-gun Fukushima-cho,41.522293,140.357052,0
49,1,01333,上磯郡知内町,Kamiiso-gun Shiriuchi-cho,41.614634,140.383354,0
50,1,01334,上磯郡木古内町,Kamiiso-gun Kikonai-cho,41.701377,140.506106,0
51,1,01337,亀田郡七飯町,Kameda-gun Nanae-cho,41.8946,140.675566,0
52,1,01343,茅部郡鹿部町,Kayabe-gun Shikabe-cho,41.998462,140.838273,0
53,1,01345,茅部郡森町,Kayabe-gun Mori-machi,42.012556,140.640698,0
54,1,01346,二海郡八雲町,Futami-gun Yakumo-cho,42.251958,140.272529,0
55,1,01347,山越郡長万部町,Yamakoshi-gun Oshamambe-cho,42.522145,140.386922,0
56,1,01361,檜山郡江差町,Hiyama-gun Esashi-cho,41.944479,140.201837,0
57,1,01362,檜山郡上ノ国町,Hiyama-gun Kaminokuni-cho,41.706035,140.029723,0
58,1,01363,檜山郡厚沢部町,Hiyama-gun Assabu-cho,41.930867,140.225427,0
59,1,01364,爾志郡乙部町,Nishi-gun Otobe-cho,42.005011,140.247137,0
60,1,01367,奥尻郡奥尻町,Okushiri-gun Okushiri-cho,42.059504,139.448232,0
61,1,01370,瀬棚郡今金町,Setana-gun Imakane-cho,42.319471,140.034989,0
62,1,01371,久遠郡せたな町,Kudo-gun Setana-cho,42.396773,139.913184,0
63,1,01391,島牧郡島牧村,Shimamaki-gun Shimamaki-mura,42.736365,140.201508,0
64,1,01392,寿都郡寿都町,Suttsu-gun Suttsu-cho,42.820506,140.352911,0
65,1,01393,寿都郡黒松内町,Suttsu-gun Kuromatsunai-cho,42.66462,140.429039,0
66,1,01394,磯谷郡蘭越町,Isoya-gun Rankoshi-cho,42.742135,140.506807,0
67,1,01395,虻田郡ニセコ町,Abuta-gun Niseko-cho,42.816779,140.708757,0
68,1,01396,虻田郡真狩村,Abuta-gun Makkari-mura,42.780715,140.827179,0
69,1,01397,虻田郡留寿都村,Abuta-gun Rusutsu-mura,42.700184,140.984787,0
70,1,01398,虻田郡喜茂別町,Abuta-gun Kimobetsu-cho,42.787224,140.919017,0
71,1,01399,虻田郡京極町,Abuta-gun Kyogoku-cho,42.844402,140.914904,0
72,1,01400,虻田郡倶知安町,Abuta-gun Kutchan-cho,42.904941,140.717418,0
73,1,01401,岩内郡共和町,Iwanai-gun Kyowa-cho,42.939899,140.550661,0
74,1,01402,岩内郡岩内町,Iwanai-gun Iwanai-cho,42.974333,140.506065,0
75,1,01403,古宇郡泊村,Furu-gun Tomari-mura,43.123519,140.472821,0
76,1,01404,古宇郡神恵内村,Furu-gun Kamoenai-mura,43.172175,140.400361,0
77,1,01405,積丹郡積丹町,Shakotan-gun Shakotan-cho,43.359405,140.481667,0
78,1,01406,古平郡古平町,Furubira-gun Furubira-cho,43.278485,140.641055,0
79,1,01407,余市郡仁木町,Yoichi-gun Niki-cho,43.159163,140.744937,0
80,1,01408,余市郡余市町,Yoichi-gun Yoichi-cho,43.193712,140.780153,0
81,1,01409,余市郡赤井川村,Yoichi-gun Akaigawa-mura,43.083901,140.815138,0
82,1,01423,空知郡南幌町,Sorachi-gun Namporo-cho,43.026435,141.599152,0
83,1,01424,空知郡奈井江町,Sorachi-gun Naie-cho,43.401282,141.846536,0
84,1,01425,空知郡上砂川町,Sorachi-gun Kamisunagawa-cho,43.476835,141.963731,0
85,1,01427,夕張郡由仁町,Yubari-gun Yuni-cho,42.988172,141.829618,0
86,1,01428,夕張郡長沼町,Yubari-gun Naganuma-cho,43.012112,141.684085,0
87,1,01429,夕張郡栗山町,Yubari-gun Kuriyama-cho,43.035741,141.82024,0
88,1,01430,樺戸郡月形町,Kabato-gun Tsukigata-cho,43.33741,141.6523,0
89,1,01431,樺戸郡浦臼町,Kabato-gun Urausu-cho,43.428969,141.804599,0
90,1,01432,樺戸郡新十津川町,Kabato-gun Shintotsukawa-cho,43.589469,141.784596,0
91,1,01433,雨竜郡妹背牛町,Uryu-gun Moseushi-cho,43.740122,141.967821,0
92,1,01434,雨竜郡秩父別町,Uryu-gun Chippubetsu-cho,43.76061,141.948756,0
93,1,01436,雨竜郡雨竜町,Uryu-gun Uryu-cho,43.651347,141.885971,0
94,1,01437,雨竜郡北竜町,Uryu-gun Hokuryu-cho,43.742746,141.885784,0
95,1,01438,雨竜郡沼田町,Uryu-gun Numata-cho,43.932879,141.918184,0
96,1,01452,上川郡鷹栖町,Kamikawa-gun Takasu-cho,43.810347,142.312494,0
97,1,01453,上川郡東神楽町,Kamikawa-gun Higashikagura-cho,43.702455,142.437248,0
98,1,01454,上川郡当麻町,Kamikawa-gun Toma-cho,43.829383,142.503693,0
99,1,01455,上川郡比布町,Kamikawa-gun Pippu-cho,43.879699,142.500214,0
100,1,01456,上川郡愛別町,Kamikawa-gun Aibetsu-cho,43.868179,142.679584,0
101,1,01457,上川郡上川町,Kamikawa-gun Kamikawa-cho,43.711342,142.827264,0
102,1,01458,上川郡東川町,Kamikawa-gun Higashikawa-cho,43.705566,142.542119,0
103,1,01459,上川郡美瑛町,Kamikawa-gun Biei-cho,43.61762,142.522021,0
104,1,01460,空知郡上富良野町,Sorachi-gun Kamifurano-cho,43.456121,142.475635,0
105,1,01461,空知郡中富良野町,Sorachi-gun Nakafurano-cho,43.397381,142.414601,0
106,1,01462,空知郡南富良野町,Sorachi-gun Minamifurano-cho,43.158206,142.583269,0
107,1,01463,勇払郡占冠村,Yufutsu-gun Shimukappu-mura,43.012557,142.676427,0
108,1,01464,上川郡和寒町,Kamikawa-gun Wassamu-cho,43.994598,142.451264,0
109,1,01465,上川郡剣淵町,Kamikawa-gun Kembuchi-cho,44.110272,142.345097,0
110,1,01468,上川郡下川町,Kamikawa-gun Shimokawa-cho,44.304509,142.641838,0
111,1,01469,中川郡美深町,Nakagawa-gun Bifuka-cho,44.496039,142.299988,0
112,1,01470,中川郡音威子府村,Nakagawa-gun Otoineppu-mura,44.729262,142.260329,0
113,1,01471,中川郡中川町,Nakagawa-gun Nakagawa-cho,44.588796,142.117871,0
114,1,01472,雨竜郡幌加内町,Uryu-gun Horokanai-cho,44.00579,142.165856,0
115,1,01481,増毛郡増毛町,Mashike-gun Mashike-cho,43.871273,141.630987,0
116,1,01482,留萌郡小平町,Rumoi-gun Obira-cho,44.000511,141.666528,0
117,1,01483,苫前郡苫前町,Tomamae-gun Tomamae-cho,44.300379,141.676764,0
118,1,01484,苫前郡羽幌町,Tomamae-gun Haboro-cho,44.36569,141.854673,0
119,1,01485,苫前郡初山別村,Tomamae-gun Shosambetsu-mura,44.553319,141.80398,0
120,1,01486,天塩郡遠別町,Teshio-gun Embetsu-cho,44.659457,141.855077,0
121,1,01487,天塩郡天塩町,Teshio-gun Teshio-cho,44.93981,141.822185,0
122,1,01511,宗谷郡猿払村,Soya-gun Sarufutsu-mura,45.212723,142.221329,0
123,1,01512,枝幸郡浜頓別町,Esashi-gun Hamatombetsu-cho,45.060567,142.374026,0
124,1,01513,枝幸郡中頓別町,Esashi-gun Nakatombetsu-cho,44.808344,142.299488,0
125,1,01514,枝幸郡枝幸町,Esashi-gun Esashi-cho,44.937051,142.51172,0
126,1,01516,天塩郡豊富町,Teshio-gun Toyotomi-cho,45.191458,141.746593,0
127,1,01517,礼文郡礼文町,Rebun-gun Rebun-cho,45.334026,141.031708,0
128,1,01518,利尻郡利尻町,Rishiri-gun Rishiri-cho,45.187521,141.148816,0
129,1,01519,利尻郡利尻富士町,Rishiri-gun Rishirifuji-cho,45.222094,141.219863,0
130,1,01520,天塩郡幌延町,Teshio-gun Horonobe-cho,45.015721,141.845028,0
131,1,01543,網走郡美幌町,Abashiri-gun Bihoro-cho,43.816714,144.111014,0
132,1,01544,網走郡津別町,Abashiri-gun Tsubetsu-cho,43.707604,144.020358,0
133,1,01545,斜里郡斜里町,Shari-gun Shari-cho,43.903122,144.660449,0
134,1,01546,斜里郡清里町,Shari-gun Kiyosato-cho,43.73335,144.508278,0
135,1,01547,斜里郡小清水町,Shari-gun Koshimizu-cho,43.875959,144.530914,0
136,1,01549,常呂郡訓子府町,Tokoro-gun Kunneppu-cho,43.705849,143.782392,0
137,1,01550,常呂郡置戸町,Tokoro-gun Oketo-cho,43.728017,143.603451,0
138,1,01552,常呂郡佐呂間町,Tokoro-gun Saroma-cho,43.976479,143.758265,0
139,1,01555,紋別郡遠軽町,Mombetsu-gun Engaru-cho,44.071873,143.535785,0
140,1,01559,紋別郡湧別町,Mombetsu-gun Yubetsu-cho,44.228466,143.619525,0
141,1,01560,紋別郡滝上町,Mombetsu-gun Takinoe-cho,44.192729,143.085977,0
142,1,01561,紋別郡興部町,Mombetsu-gun Okoppe-cho,44.445705,143.133474,0
143,1,01562,紋別郡西興部村,Mombetsu-gun Nishiokoppe-mura,44.383986,142.843144,0
144,1,01563,紋別郡雄武町,Mombetsu-gun Omu-cho,44.536152,142.848802,0
145,1,01564,網走郡大空町,Abashiri-gun Ozora-cho,43.819002,144.318681,0
146,1,01571,虻田郡豊浦町,Abuta-gun Toyora-cho,42.69484,140.648624,0
147,1,01575,有珠郡壮瞥町,Usu-gun Sobetsu-cho,42.553098,141.047071,0
148,1,01578,白老郡白老町,Shiraoi-gun Shiraoi-cho,42.574356,141.277508,0
149,1,01581,勇払郡厚真町,Yufutsu-gun Atsuma-cho,42.732045,141.883506,0
150,1,01584,虻田郡洞爺湖町,Abuta-gun Toyako-cho,42.555599,140.764077,0
151,1,01585,勇払郡安平町,Yufutsu-gun Abira-cho,42.816856,141.82393,0
152,1,01586,勇払郡むかわ町,Yufutsu-gun Mukawa-cho,42.585475,141.927808,0
153,1,01601,沙流郡日高町,Saru-gun Hidaka-cho,42.485537,142.099616,0
154,1,01602,沙流郡平取町,Saru-gun Biratori-cho,42.643478,142.36052,0
155,1,01604,新冠郡新冠町,Niikappu-gun Niikappu-cho,42.403913,142.353819,0
156,1,01607,浦河郡浦河町,Urakawa-gun Urakawa-cho,42.23358,142.734241,0
157,1,01608,様似郡様似町,Samani-gun Samani-cho,42.093779,143.11929,0
158,1,01609,幌泉郡えりも町,Horoizumi-gun Erimo-cho,42.027336,143.208306,0
159,1,01610,日高郡新ひだか町,Hidaka-gun Shinhidaka-cho,42.336349,142.36856,0
160,1,01631,河東郡音更町,Kato-gun Otofuke-cho,43.028931,143.327935,0
161,1,01632,河東郡士幌町,Kato-gun Shihoro-cho,43.126471,143.354112,0
162,1,01633,河東郡上士幌町,Kato-gun Kamishihoro-cho,43.216261,143.341411,0
163,1,01634,河東郡鹿追町,Kato-gun Shikaoi-cho,43.290695,143.047232,0
164,1,01635,上川郡新得町,Kamikawa-gun Shintoku-cho,43.083333,142.834114,0
165,1,01636,上川郡清水町,Kamikawa-gun Shimizu-cho,42.879327,142.887027,0
166,1,01637,河西郡芽室町,Kasai-gun Memuro-cho,42.739568,142.931005,0
167,1,01638,河西郡中札内村,Kasai-gun Nakasatsunai-mura,42.699827,143.133431,0
168,1,01639,河西郡更別村,Kasai-gun Sarabetsu-mura,42.606423,143.244889,0
169,1,01641,広尾郡大樹町,Hiro-gun Taiki-cho,42.489955,143.27524,0
170,1,01642,広尾郡広尾町,Hiro-gun Hiro-cho,42.370589,143.358005,0
171,1,01643,中川郡幕別町,Nakagawa-gun Makubetsu-cho,42.921574,143.336918,0
172,1,01644,中川郡池田町,Nakagawa-gun Ikeda-cho,42.980849,143.40831,0
173,1,01645,中川郡豊頃町,Nakagawa-gun Toyokoro-cho,42.762846,143.545833,0
174,1,01646,中川郡本別町,Nakagawa-gun Hombetsu-cho,43.123851,143.614668,0
175,1,01647,足寄郡足寄町,Ashoro-gun Ashoro-cho,43.293784,143.571268,0
176,1,01648,足寄郡陸別町,Ashoro-gun Rikubetsu-cho,43.469336,143.782572,0
177,1,01649,十勝郡浦幌町,Tokachi-gun Urahoro-cho,42.740969,143.605816,0
178,1,01661,釧路郡釧路町,Kushiro-gun Kushiro-cho,43.012964,144.408303,0
179,1,01662,厚岸郡厚岸町,Akkeshi-gun Akkeshi-cho,43.023055,144.842425,0
180,1,01663,厚岸郡浜中町,Akkeshi-gun Hamanaka-cho,43.142463,145.184848,0
181,1,01664,川上郡標茶町,Kawakami-gun Shibecha-cho,43.117955,144.630061,0
182,1,01665,川上郡弟子屈町,Kawakami-gun Teshikaga-cho,43.610507,144.456936,0
183,1,01667,阿寒郡鶴居村,Akan-gun Tsurui-mura,43.092401,144.306244,0
184,1,01668,白糠郡白糠町,Shiranuka-gun Shiranuka-cho,43.006523,144.052284,0
185,1,01691,野付郡別海町,Notsuke-gun Betsukai-cho,43.393788,144.707204,0
186,1,01692,標津郡中標津町,Shibetsu-gun Nakashibetsu-cho,43.540284,144.908841,0
187,1,01693,標津郡標津町,Shibetsu-gun Shibetsu-cho,43.680797,145.104109,0
188,1,01694,目梨郡羅臼町,Menashi-gun Rausu-cho,44.186819,145.317394,0
189,2,02201,青森市,Aomori-shi,40.805836,140.743053,0
190,2,02202,弘前市,Hirosaki-shi,40.534219,140.371043,0
191,2,02203,八戸市,Hachinohe-shi,40.50908,141.511275,0
192,2,02204,黒石市,Kuroishi-shi,40.66294,140.602483,0
193,2,02205,五所川原市,Goshogawara-shi,41.058497,140.35717,0
194,2,02206,十和田市,Towada-shi,40.629777,141.227744,0
195,2,02207,三沢市,Misawa-shi,40.767701,141.372083,0
196,2,02208,むつ市,Mutsu-shi,41.267566,141.212019,0
197,2,02209,つがる市,Tsugaru-shi,40.915836,140.404746,0
198,2,02210,平川市,Hirakawa-shi,40.602096,140.568429,0
199,2,02301,東津軽郡平内町,Higashitsugaru-gun Hiranai-machi,40.948022,140.964823,0
200,2,02303,東津軽郡今別町,Higashitsugaru-gun Imabetsu-machi,41.167818,140.480629,0
201,2,02304,東津軽郡蓬田村,Higashitsugaru-gun Yomogita-mura,40.97197,140.623654,0
202,2,02307,東津軽郡外ケ浜町,Higashitsugaru-gun Sotogahama-machi,41.03863,140.640529,0
203,2,02321,西津軽郡鰺ヶ沢町,Nishitsugaru-gun Ajigasawa-machi,40.765644,140.179881,0
204,2,02323,西津軽郡深浦町,Nishitsugaru-gun Fukaura-machi,40.709276,140.111405,0
205,2,02343,中津軽郡西目屋村,Nakatsugaru-gun Nishimeya-mura,40.535049,140.267796,0
206,2,02361,南津軽郡藤崎町,Minamitsugaru-gun Fujisaki-machi,40.693127,140.513657,0
207,2,02362,南津軽郡大鰐町,Minamitsugaru-gun Owani-machi,40.49372,140.529435,0
208,2,02367,南津軽郡田舎館村,Minamitsugaru-gun Inakadate-mura,40.65401,140.531232,0
209,2,02381,北津軽郡板柳町,Kitatsugaru-gun Itayanagi-machi,40.7017,140.463703,0
210,2,02384,北津軽郡鶴田町,Kitatsugaru-gun Tsuruta-machi,40.781417,140.423672,0
211,2,02387,北津軽郡中泊町,Kitatsugaru-gun Nakadomari-machi,40.944992,140.405878,0
212,2,02401,上北郡野辺地町,Kamikita-gun Noheji-machi,40.864448,141.133531,0
213,2,02402,上北郡七戸町,Kamikita-gun Shichinohe-machi,40.753548,141.248806,0
214,2,02405,上北郡六戸町,Kamikita-gun Rokunohe-machi,40.648177,141.328661,0
215,2,02406,上北郡横浜町,Kamikita-gun Yokohama-machi,41.059074,141.255139,0
216,2,02408,上北郡東北町,Kamikita-gun Tohoku-machi,40.767315,141.215255,0
217,2,02411,上北郡六ヶ所村,Kamikita-gun Rokkasho-mura,40.974671,141.349127,0
218,2,02412,上北郡おいらせ町,Kamikita-gun Oirase-cho,40.649433,141.367222,0
219,2,02423,下北郡大間町,Shimokita-gun Oma-machi,41.527021,140.920337,0
220,2,02424,下北郡東通村,Shimokita-gun Higashidori-mura,41.370926,141.397036,0
221,2,02425,下北郡風間浦村,Shimokita-gun Kazamaura-mura,41.477571,141.006357,0
222,2,02426,下北郡佐井村,Shimokita-gun Sai-mura,41.403862,140.882932,0
223,2,02441,三戸郡三戸町,Sannohe-gun Sannohe-machi,40.385128,141.292375,0
224,2,02442,三戸郡五戸町,Sannohe-gun Gonohe-machi,40.545274,141.333456,0
225,2,02443,三戸郡田子町,Sannohe-gun Takko-machi,40.296519,141.084867,0
226,2,02445,三戸郡南部町,Sannohe-gun Nambu-cho,40.443165,141.292302,0
227,2,02446,三戸郡階上町,Sannohe-gun Hashikami-cho,40.443771,141.61063,0
228,2,02450,三戸郡新郷村,Sannohe-gun Shingo-mura,40.432988,141.183343,0
229,3,03201,盛岡市,Morioka-shi,39.721677,141.11318,0
230,3,03202,宮古市,Miyako-shi,39.584141,141.971273,0
231,3,03203,大船渡市,Ofunato-shi,39.057747,141.75258,0
232,3,03205,花巻市,Hanamaki-shi,39.405529,141.114177,0
233,3,03206,北上市,Kitakami-shi,39.249061,141.091612,0
234,3,03207,久慈市,Kuji-shi,40.201584,141.777466,0
235,3,03208,遠野市,Tono-shi,39.31283,141.560188,0
236,3,03209,一関市,Ichinoseki-shi,38.929515,141.12729,0
237,3,03210,陸前高田市,Rikuzentakata-shi,38.997881,141.693076,0
238,3,03211,釜石市,Kamaishi-shi,39.268121,141.860047,0
239,3,03213,二戸市,Ninohe-shi,40.243094,141.215237,0
240,3,03214,八幡平市,Hachimantai-shi,40.119321,140.940422,0
241,3,03215,奥州市,Oshu-shi,39.091826,141.054452,0
242,3,03216,滝沢市,Takizawa-shi,39.743192,141.107387,0
243,3,03301,岩手郡雫石町,Iwate-gun Shizukuishi-cho,39.700293,141.021876,0
244,3,03302,岩手郡葛巻町,Iwate-gun Kuzumaki-machi,39.978636,141.509963,0
245,3,03303,岩手郡岩手町,Iwate-gun Iwate-machi,40.007751,141.225631,0
246,3,03321,紫波郡紫波町,Shiwa-gun Shiwa-cho,39.537107,141.246917,0
247,3,03322,紫波郡矢巾町,Shiwa-gun Yahaba-cho,39.593781,141.170698,0
248,3,03366,和賀郡西和賀町,Waga-gun Nishiwaga-machi,39.339409,140.753187,0
249,3,03381,胆沢郡金ケ崎町,Isawa-gun Kanegasaki-cho,39.158154,140.972985,0
250,3,03402,西磐井郡平泉町,Nishiiwai-gun Hiraizumi-cho,38.990173,141.155797,0
251,3,03441,気仙郡住田町,Kesen-gun Sumita-cho,39.218929,141.631505,0
252,3,03461,上閉伊郡大槌町,Kamihei-gun Otsuchi-cho,39.370512,141.888831,0
253,3,03482,下閉伊郡山田町,Shimohei-gun Yamada-machi,39.539248,141.835275,0
254,3,03483,下閉伊郡岩泉町,Shimohei-gun Iwaizumi-cho,39.809125,141.711972,0
255,3,03484,下閉伊郡田野畑村,Shimohei-gun Tanohata-mura,39.957441,141.915631,0
256,3,03485,下閉伊郡普代村,Shimohei-gun Fudai-mura,39.983932,141.882658,0
257,3,03501,九戸郡軽米町,Kunohe-gun Karumai-machi,40.281907,141.406712,0
258,3,03503,九戸郡野田村,Kunohe-gun Noda-mura,40.052976,141.815543,0
259,3,03506,九戸郡九戸村,Kunohe-gun Kunohe-mura,40.191643,141.424756,0
260,3,03507,九戸郡洋野町,Kunohe-gun Hirono-cho,40.27003,141.718804,0
261,3,03524,二戸郡一戸町,Ninohe-gun Ichinohe-machi,40.161251,141.336756,0
262,4,04100,仙台市,Sendai-shi,38.1608,140.5219,2
263,4,04101,仙台市青葉区,Sendai-shi Aoba-ku,38.26529,140.85976,1
264,4,04102,仙台市宮城野区,Sendai-shi Miyagino-ku,38.274396,140.914852,1
265,4,04103,仙台市若林区,Sendai-shi Wakabayashi-ku,38.24769,140.899379,1
266,4,04104,仙台市太白区,Sendai-shi Taihaku-ku,38.234756,140.83817,1
267,4,04105,仙台市泉区,Sendai-shi Izumi-ku,38.320467,140.870928,1
268,4,04202,石巻市,Ishinomaki-shi,38.521624,141.469946,0
269,4,04203,塩竈市,Shiogama-shi,38.329819,141.01314,0
270,4,04205,気仙沼市,Kesennuma-shi,38.911353,141.547413,0
271,4,04206,白石市,Shiroishi-shi,38.00475,140.621345,0
272,4,04207,名取市,Natori-shi,38.16315,140.877432,0
273,4,04208,角田市,Kakuda-shi,38.004172,140.774591,0
274,4,04209,多賀城市,Tagajo-shi,38.294393,141.032195,0
275,4,04211,岩沼市,Iwanuma-shi,38.099098,140.854674,0
276,4,04212,登米市,Tome-shi,38.675532,141.189104,0
277,4,04213,栗原市,Kurihara-shi,38.806727,141.072858,0
278,4,04214,東松島市,Higashimatsushima-shi,38.370763,141.146055,0
279,4,04215,大崎市,Osaki-shi,38.586634,140.949843,0
280,4,04216,富谷市,Tomiya-shi,38.365783,140.871837,0
281,4,04301,刈田郡蔵王町,Katta-gun Zao-machi,38.123418,140.574411,0
282,4,04302,刈田郡七ヶ宿町,Katta-gun Shichikashuku-machi,37.990074,140.446908,0
283,4,04321,柴田郡大河原町,Shibata-gun Ogawara-machi,38.06153,140.724664,0
284,4,04322,柴田郡村田町,Shibata-gun Murata-machi,38.090371,140.721338,0
285,4,04323,柴田郡柴田町,Shibata-gun Shibata-machi,38.048646,140.782276,0
286,4,04324,柴田郡川崎町,Shibata-gun Kawasaki-machi,38.145949,140.533676,0
287,4,04341,伊具郡丸森町,Igu-gun Marumori-machi,37.913637,140.764278,0
288,4,04361,亘理郡亘理町,Watari-gun Watari-cho,38.039208,140.864107,0
289,4,04362,亘理郡山元町,Watari-gun Yamamoto-cho,37.994795,140.85954,0
290,4,04401,宮城郡松島町,Miyagi-gun Matsushima-machi,38.38788,141.079564,0
291,4,04404,宮城郡七ヶ浜町,Miyagi-gun Shichigahama-machi,38.286797,141.047009,0
292,4,04406,宮城郡利府町,Miyagi-gun Rifu-cho,38.33259,140.97026,0
293,4,04421,黒川郡大和町,Kurokawa-gun Taiwa-cho,38.434658,140.915172,0
294,4,04422,黒川郡大郷町,Kurokawa-gun Osato-cho,38.426324,140.982149,0
295,4,04424,黒川郡大衡村,Kurokawa-gun Ohira-mura,38.46937,140.901068,0
296,4,04444,加美郡色麻町,Kami-gun Shikama-cho,38.560895,140.830315,0
297,4,04445,加美郡加美町,Kami-gun Kami-machi,38.574983,140.850804,0
298,4,04501,遠田郡涌谷町,Toda-gun Wakuya-cho,38.535518,141.138611,0
299,4,04505,遠田郡美里町,Toda-gun Misato-machi,38.538414,141.068609,0
300,4,04581,牡鹿郡女川町,Oshika-gun Onagawa-cho,38.441009,141.442969,0
301,4,04606,本吉郡南三陸町,Motoyoshi-gun Minamisanriku-cho,38.634149,141.44523,0
302,5,05201,秋田市,Akita-shi,39.743039,140.128123,0
303,5,05202,能代市,Noshiro-shi,40.200323,140.019083,0
304,5,05203,横手市,Yokote-shi,39.324108,140.526776,0
305,5,05204,大館市,Odate-shi,40.261354,140.559336,0
306,5,05206,男鹿市,Oga-shi,39.981958,139.871828,0
307,5,05207,湯沢市,Yuzawa-shi,39.086976,140.500311,0
308,5,05209,鹿角市,Kazuno-shi,40.179767,140.741629,0
309,5,05210,由利本荘市,Yurihonjo-shi,39.410605,140.145923,0
310,5,05211,潟上市,Katagami-shi,39.898089,140.077104,0
311,5,05212,大仙市,Daisen-shi,39.542555,140.371977,0
312,5,05213,北秋田市,Kitaakita-shi,40.227134,140.373386,0
313,5,05214,にかほ市,Nikaho-shi,39.219524,139.998029,0
314,5,05215,仙北市,Semboku-shi,39.593981,140.576616,0
315,5,05303,鹿角郡小坂町,Kazuno-gun Kosaka-machi,40.300628,140.760426,0
316,5,05327,北秋田郡上小阿仁村,Kitaakita-gun Kamikoani-mura,40.030919,140.267611,0
317,5,05346,山本郡藤里町,Yamamoto-gun Fujisato-machi,40.276743,140.304015,0
318,5,05348,山本郡三種町,Yamamoto-gun Mitane-cho,40.07329,139.962481,0
319,5,05349,山本郡八峰町,Yamamoto-gun Happo-cho,40.396356,140.03869,0
320,5,05361,南秋田郡五城目町,Minamiakita-gun Gojome-machi,39.949749,140.122835,0
321,5,05363,南秋田郡八郎潟町,Minamiakita-gun Hachirogata-machi,39.941392,140.079981,0
322,5,05366,南秋田郡井川町,Minamiakita-gun Ikawa-machi,39.884129,140.121649,0
323,5,05368,南秋田郡大潟村,Minamiakita-gun Ogata-mura,39.998211,139.965744,0
324,5,05434,仙北郡美郷町,Semboku-gun Misato-cho,39.444077,140.553514,0
325,5,05463,雄勝郡羽後町,Ogachi-gun Ugo-machi,39.171015,140.445719,0
326,5,05464,雄勝郡東成瀬村,Ogachi-gun Higashinaruse-mura,39.180566,140.715779,0
327,6,06201,山形市,Yamagata-shi,38.259076,140.337672,0
328,6,06202,米沢市,Yonezawa-shi,37.906318,140.11868,0
329,6,06203,鶴岡市,Tsuruoka-shi,38.723986,139.812035,0
330,6,06204,酒田市,Sakata-shi,38.91877,139.843169,0
331,6,06205,新庄市,Shinjo-shi,38.760851,140.290347,0
332,6,06206,寒河江市,Sagae-shi,38.401377,140.279237,0
333,6,06207,上山市,Kaminoyama-shi,38.124874,140.278994,0
334,6,06208,村山市,Murayama-shi,38.478148,140.384586,0
335,6,06209,長井市,Nagai-shi,38.087402,140.082349,0
336,6,06210,天童市,Tendo-shi,38.327216,140.369669,0
337,6,06211,東根市,Higashine-shi,38.408802,140.393775,0
338,6,06212,尾花沢市,Obanazawa-shi,38.652203,140.364453,0
339,6,06213,南陽市,Nanyo-shi,38.057612,140.175366,0
340,6,06301,東村山郡山辺町,Higashimurayama-gun Yamanobe-machi,38.280535,140.270985,0
341,6,06302,東村山郡中山町,Higashimurayama-gun Nakayama-machi,38.33767,140.283705,0
342,6,06321,西村山郡河北町,Nishimurayama-gun Kahoku-cho,38.405903,140.291239,0
343,6,06322,西村山郡西川町,Nishimurayama-gun Nishikawa-machi,38.411318,140.053454,0
344,6,06323,西村山郡朝日町,Nishimurayama-gun Asahi-machi,38.291252,140.155211,0
345,6,06324,西村山郡大江町,Nishimurayama-gun Oe-machi,38.383934,140.204779,0
346,6,06341,北村山郡大石田町,Kitamurayama-gun Oishida-machi,38.5943,140.375282,0
347,6,06361,最上郡金山町,Mogami-gun Kaneyama-machi,38.915961,140.418005,0
348,6,06362,最上郡最上町,Mogami-gun Mogami-machi,38.755286,140.417435,0
349,6,06363,最上郡舟形町,Mogami-gun Funagata-machi,38.693674,140.279473,0
350,6,06364,最上郡真室川町,Mogami-gun Mamurogawa-machi,38.852976,140.259364,0
351,6,06365,最上郡大蔵村,Mogami-gun Okura-mura,38.713054,140.233606,0
352,6,06366,最上郡鮭川村,Mogami-gun Sakegawa-mura,38.832647,140.299338,0
353,6,06367,最上郡戸沢村,Mogami-gun Tozawa-mura,38.743858,140.196249,0
354,6,06381,東置賜郡高畠町,Higashiokitama-gun Takahata-machi,38.000746,140.178489,0
355,6,06382,東置賜郡川西町,Higashiokitama-gun Kawanishi-machi,38.042637,140.074889,0
356,6,06401,西置賜郡小国町,Nishiokitama-gun Oguni-machi,38.057893,139.756204,0
357,6,06402,西置賜郡白鷹町,Nishiokitama-gun Shirataka-machi,38.141804,140.067618,0
358,6,06403,西置賜郡飯豊町,Nishiokitama-gun Iide-machi,37.870791,139.810091,0
359,6,06426,東田川郡三川町,Higashitagawa-gun Mikawa-machi,38.788254,139.837132,0
360,6,06428,東田川郡庄内町,Higashitagawa-gun Shonai-machi,38.821738,139.940339,0
361,6,06461,飽海郡遊佐町,Akumi-gun Yuza-machi,39.002885,139.893762,0
362,7,07201,福島市,Fukushima-shi,37.692813,140.539338,0
363,7,07202,会津若松市,Aizuwakamatsu-shi,37.480625,139.915821,0
364,7,07203,郡山市,Koriyama-shi,37.384863,140.328639,0
365,7,07204,いわき市,Iwaki-shi,36.95094,140.745109,0
366,7,07205,白河市,Shirakawa-shi,37.099683,140.370129,0
367,7,07207,須賀川市,Sukagawa-shi,37.256588,140.393374,0
368,7,07208,喜多方市,Kitakata-shi,37.601145,139.883273,0
369,7,07209,相馬市,Soma-shi,37.762506,140.983018,0
370,7,07210,二本松市,Nihommatsu-shi,37.541324,140.613203,0
371,7,07211,田村市,Tamura-shi,37.42509,140.788622,0
372,7,07212,南相馬市,Minamisoma-shi,37.589291,141.001775,0
373,7,07213,伊達市,Date-shi,37.762863,140.652835,0
374,7,07214,本宮市,Motomiya-shi,37.507708,140.499123,0
375,7,07301,伊達郡桑折町,Date-gun Kori-machi,37.844661,140.493773,0
376,7,07303,伊達郡国見町,Date-gun Kunimi-machi,37.887465,140.505805,0
377,7,07308,伊達郡川俣町,Date-gun Kawamata-machi,37.59049,140.678713,0
378,7,07322,安達郡大玉村,Adachi-gun Otama-mura,37.55421,140.380661,0
379,7,07342,岩瀬郡鏡石町,Iwase-gun Kagamiishi-machi,37.23054,140.368999,0
380,7,07344,岩瀬郡天栄村,Iwase-gun Tenei-mura,37.25342,140.238526,0
381,7,07362,南会津郡下郷町,Minamiaizu-gun Shimogo-machi,37.177516,139.883748,0
382,7,07364,南会津郡檜枝岐村,Minamiaizu-gun Hinoemata-mura,36.991905,139.381177,0
383,7,07367,南会津郡只見町,Minamiaizu-gun Tadami-machi,37.255803,139.400807,0
384,7,07368,南会津郡南会津町,Minamiaizu-gun Minamiaizu-machi,37.091497,139.624259,0
385,7,07402,耶麻郡北塩原村,Yama-gun Kitashiobara-mura,37.691697,140.084767,0
386,7,07405,耶麻郡西会津町,Yama-gun Nishiaizu-machi,37.559128,139.612725,0
387,7,07407,耶麻郡磐梯町,Yama-gun Bandai-machi,37.582137,139.997738,0
388,7,07408,耶麻郡猪苗代町,Yama-gun Inawashiro-machi,37.577416,140.121108,0
389,7,07421,河沼郡会津坂下町,Kawanuma-gun Aizubange-machi,37.540146,139.864968,0
390,7,07422,河沼郡湯川村,Kawanuma-gun Yugawa-mura,37.583361,139.899897,0
391,7,07423,河沼郡柳津町,Kawanuma-gun Yanaizu-machi,37.397151,139.742419,0
392,7,07444,大沼郡三島町,Onuma-gun Mishima-machi,37.487202,139.639004,0
393,7,07445,大沼郡金山町,Onuma-gun Kaneyama-machi,37.431588,139.508753,0
394,7,07446,大沼郡昭和村,Onuma-gun Showa-mura,37.258967,139.651527,0
395,7,07447,大沼郡会津美里町,Onuma-gun Aizumisato-machi,37.32511,139.765102,0
396,7,07461,西白河郡西郷村,Nishishirakawa-gun Nishigo-mura,37.187084,140.045121,0
397,7,07464,西白河郡泉崎村,Nishishirakawa-gun Izumizaki-mura,37.174117,140.268996,0
398,7,07465,西白河郡中島村,Nishishirakawa-gun Nakajima-mura,37.158574,140.371609,0
399,7,07466,西白河郡矢吹町,Nishishirakawa-gun Yabuki-machi,37.17197,140.366266,0
400,7,07481,東白川郡棚倉町,Higashishirakawa-gun Tanagura-machi,37.007157,140.369404,0
401,7,07482,東白川郡矢祭町,Higashishirakawa-gun Yamatsuri Mach,36.828769,140.457963,0
402,7,07483,東白川郡塙町,Higashishirakawa-gun Hanawa-machi,36.918943,140.489064,0
403,7,07484,東白川郡鮫川村,Higashishirakawa-gun Samegawa-mura,36.96243,140.55206,0
404,7,07501,石川郡石川町,Ishikawa-gun Ishikawa-machi,37.093893,140.485409,0
405,7,07502,石川郡玉川村,Ishikawa-gun Tamakawa-mura,37.213402,140.498964,0
406,7,07503,石川郡平田村,Ishikawa-gun Hirata-mura,37.180119,140.523905,0
407,7,07504,石川郡浅川町,Ishikawa-gun Asakawa-machi,37.087919,140.398386,0
408,7,07505,石川郡古殿町,Ishikawa-gun Furudono-machi,37.086116,140.618791,0
409,7,07521,田村郡三春町,Tamura-gun Miharu-machi,37.443108,140.481139,0
410,7,07522,田村郡小野町,Tamura-gun Ono-machi,37.24155,140.624556,0
411,7,07541,双葉郡広野町,Futaba-gun Hirono-machi,37.226901,140.926015,0
412,7,07542,双葉郡楢葉町,Futaba-gun Naraha-machi,37.250943,140.990574,0
413,7,07543,双葉郡富岡町,Futaba-gun Tomioka-machi,37.359208,140.996454,0
414,7,07544,双葉郡川内村,Futaba-gun Kawauchi-mura,37.319005,140.850883,0
415,7,07545,双葉郡大熊町,Futaba-gun Okuma-machi,37.414404,141.002975,0
416,7,07546,双葉郡双葉町,Futaba-gun Futaba-machi,37.453655,140.99448,0
417,7,07547,双葉郡浪江町,Futaba-gun Namie-machi,37.507154,140.992755,0
418,7,07548,双葉郡葛尾村,Futaba-gun Katsurao-mura,37.503445,140.736692,0
419,7,07561,相馬郡新地町,Soma-gun Shinchi-machi,37.853777,140.891265,0
420,7,07564,相馬郡飯舘村,Soma-gun Iitate-mura,37.67633,140.771564,0
421,8,08201,水戸市,Mito-shi,36.394705,140.48046,0
422,8,08202,日立市,Hitachi-shi,36.581847,140.659725,0
423,8,08203,土浦市,Tsuchiura-shi,36.065893,140.174972,0
424,8,08204,古河市,Koga-shi,36.197117,139.72136,0
425,8,08205,石岡市,Ishioka-shi,36.19809,140.173106,0
426,8,08207,結城市,Yuki-shi,36.23134,139.875924,0
427,8,08208,龍ヶ崎市,Ryugasaki-shi,35.913113,140.189236,0
428,8,08210,下妻市,Shimotsuma-shi,36.207032,139.932719,0
429,8,08211,常総市,Joso-shi,36.032863,139.998081,0
430,8,08212,常陸太田市,Hitachiota-shi,36.627376,140.450515,0
431,8,08214,高萩市,Takahagi-shi,36.714995,140.721275,0
432,8,08215,北茨城市,Kitaibaraki-shi,36.805668,140.754685,0
433,8,08216,笠間市,Kasama-shi,36.390394,140.249788,0
434,8,08217,取手市,Toride-shi,35.897057,140.084797,0
435,8,08219,牛久市,Ushiku-shi,35.965114,140.254378,0
436,8,08220,つくば市,Tsukuba-shi,36.042677,140.12315,0
437,8,08221,ひたちなか市,Hitachinaka-shi,36.386856,140.531597,0
438,8,08222,鹿嶋市,Kashima-shi,35.96645,140.658782,0
439,8,08223,潮来市,Itako-shi,35.936508,140.547471,0
440,8,08224,守谷市,Moriya-shi,35.956983,140.008045,0
441,8,08225,常陸大宮市,Hitachiomiya-shi,36.577859,140.264704,0
442,8,08226,那珂市,Naka-shi,36.45705,140.458626,0
443,8,08227,筑西市,Chikusei-shi,36.210589,140.016531,0
444,8,08228,坂東市,Bando-shi,36.05688,139.886649,0
445,8,08229,稲敷市,Inashiki-shi,35.95259,140.382225,0
446,8,08230,かすみがうら市,Kasumigaura-shi,36.064586,140.357802,0
447,8,08231,桜川市,Sakuragawa-shi,36.348354,140.085229,0
448,8,08232,神栖市,Kamisu-shi,35.881714,140.625895,0
449,8,08233,行方市,Namegata-shi,36.028024,140.514404,0
450,8,08234,鉾田市,Hokota-shi,36.177131,140.457945,0
451,8,08235,つくばみらい市,Tsukubamirai-shi,35.963058,140.011609,0
452,8,08236,小美玉市,Omitama-shi,36.206582,140.407295,0
453,8,08302,東茨城郡茨城町,Higashiibaraki-gun Ibaraki-machi,36.257039,140.48832,0
454,8,08309,東茨城郡大洗町,Higashiibaraki-gun Oarai-machi,36.321332,140.59018,0
455,8,08310,東茨城郡城里町,Higashiibaraki-gun Shirosato-machi,36.508102,140.373835,0
456,8,08341,那珂郡東海村,Naka-gun Tokai-mura,36.48142,140.576021,0
457,8,08364,久慈郡大子町,Kuji-gun Daigo-machi,36.750644,140.281702,0
458,8,08442,稲敷郡美浦村,Inashiki-gun Miho-mura,36.006785,140.302405,0
459,8,08443,稲敷郡阿見町,Inashiki-gun Ami-machi,36.032002,140.174378,0
460,8,08447,稲敷郡河内町,Inashiki-gun Kawachi-machi,35.878199,140.307087,0
461,8,08521,結城郡八千代町,Yuki-gun Yachiyo-machi,36.141689,139.892432,0
462,8,08542,猿島郡五霞町,Sashima-gun Goka-machi,36.094614,139.767814,0
463,8,08546,猿島郡境町,Sashima-gun Sakai-machi,36.08648,139.820201,0
464,8,08564,北相馬郡利根町,Kitasoma-gun Tone-machi,35.877466,140.167109,0
465,9,09201,宇都宮市,Utsunomiya-shi,36.646869,139.911701,0
466,9,09202,足利市,Ashikaga-shi,36.336014,139.461246,0
467,9,09203,栃木市,Tochigi-shi,36.377396,139.736519,0
468,9,09204,佐野市,Sano-shi,36.314003,139.582933,0
469,9,09205,鹿沼市,Kanuma-shi,36.563155,139.744289,0
470,9,09206,日光市,Nikko-shi,36.74661,139.620836,0
471,9,09208,小山市,Oyama-shi,36.261436,139.765015,0
472,9,09209,真岡市,Moka-shi,36.37427,139.942822,0
473,9,09210,大田原市,Otawara-shi,36.841663,140.058927,0
474,9,09211,矢板市,Yaita-shi,36.797551,139.941108,0
475,9,09213,那須塩原市,Nasushiobara-shi,36.996675,139.992012,0
476,9,09214,さくら市,Sakura-shi,36.686776,139.966872,0
477,9,09215,那須烏山市,Nasukarasuyama-shi,36.652605,140.163267,0
478,9,09216,下野市,Shimotsuke-shi,36.435221,139.861396,0
479,9,09301,河内郡上三川町,Kawachi-gun Kaminokawa-machi,36.468907,139.899607,0
480,9,09342,芳賀郡益子町,Haga-gun Mashiko-machi,36.516829,140.131888,0
481,9,09343,芳賀郡茂木町,Haga-gun Motegi-machi,36.50083,140.208684,0
482,9,09344,芳賀郡市貝町,Haga-gun Ichikai-machi,36.515659,140.065667,0
483,9,09345,芳賀郡芳賀町,Haga-gun Haga-machi,36.560043,140.075614,0
484,9,09361,下都賀郡壬生町,Shimotsuga-gun Mibu-machi,36.46455,139.824106,0
485,9,09364,下都賀郡野木町,Shimotsuga-gun Nogi-machi,36.238838,139.749294,0
486,9,09384,塩谷郡塩谷町,Shioya-gun Shioya-machi,36.757923,139.84175,0
487,9,09386,塩谷郡高根沢町,Shioya-gun Takanezawa-machi,36.653653,140.044042,0
488,9,09407,那須郡那須町,Nasu-gun Nasu-machi,36.990064,140.167639,0
489,9,09411,那須郡那珂川町,Nasu-gun Nakagawa-machi,36.739903,140.243488,0
490,10,10201,前橋市,Maebashi-shi,36.412822,139.014758,0
491,10,10202,高崎市,Takasaki-shi,36.332412,139.000687,0
492,10,10203,桐生市,Kiryu-shi,36.402382,139.316967,0
493,10,10204,伊勢崎市,Isesaki-shi,36.380676,139.2619,0
494,10,10205,太田市,Ota-shi,36.248065,139.309247,0
495,10,10206,沼田市,Numata-shi,36.680651,139.080288,0
496,10,10207,館林市,Tatebayashi-shi,36.222711,139.517168,0
497,10,10208,渋川市,Shibukawa-shi,36.523192,139.048309,0
498,10,10209,藤岡市,Fujioka-shi,36.234662,139.045154,0
499,10,10210,富岡市,Tomioka-shi,36.283783,138.926799,0
500,10,10211,安中市,Annaka-shi,36.358588,138.8496,0
501,10,10212,みどり市,Midori-shi,36.518931,139.297322,0
502,10,10344,北群馬郡榛東村,Kitagumma-gun Shinto-mura,36.438067,138.97028,0
503,10,10345,北群馬郡吉岡町,Kitagumma-gun Yoshioka-machi,36.441729,139.031572,0
504,10,10366,多野郡上野村,Tano-gun Ueno-mura,36.079435,138.748217,0
505,10,10367,多野郡神流町,Tano-gun Kanna-machi,36.102071,138.878664,0
506,10,10382,甘楽郡下仁田町,Kanra-gun Shimonita-machi,36.172806,138.776417,0
507,10,10383,甘楽郡南牧村,Kanra-gun Nammoku-mura,36.159644,138.749107,0
508,10,10384,甘楽郡甘楽町,Kanra-gun Kanra-machi,36.185447,138.874489,0
509,10,10421,吾妻郡中之条町,Agatsuma-gun Nakanojo-machi,36.579994,138.874127,0
510,10,10424,吾妻郡長野原町,Agatsuma-gun Naganohara-machi,36.511153,138.604775,0
511,10,10425,吾妻郡嬬恋村,Agatsuma-gun Tsumagoi-mura,36.53326,138.560612,0
512,10,10426,吾妻郡草津町,Agatsuma-gun Kusatsu-machi,36.627368,138.575798,0
513,10,10428,吾妻郡高山村,Agatsuma-gun Takayama-mura,36.623179,138.912109,0
514,10,10429,吾妻郡東吾妻町,Agatsuma-gun Higashiagatsuma-machi,36.528963,138.806344,0
515,10,10443,利根郡片品村,Tone-gun Katashina-mura,36.775789,139.231997,0
516,10,10444,利根郡川場村,Tone-gun Kawaba-mura,36.753904,139.138958,0
517,10,10448,利根郡昭和村,Tone-gun Showa-mura,36.594054,139.131615,0
518,10,10449,利根郡みなかみ町,Tone-gun Minakami-machi,36.768793,138.874961,0
519,10,10464,佐波郡玉村町,Sawa-gun Tamamura-machi,36.285509,139.153355,0
520,10,10521,邑楽郡板倉町,Ora-gun Itakura-machi,36.224293,139.646391,0
521,10,10522,邑楽郡明和町,Ora-gun Meiwa-machi,36.213032,139.50683,0
522,10,10523,邑楽郡千代田町,Ora-gun Chiyoda-machi,36.196031,139.46271,0
523,10,10524,邑楽郡大泉町,Ora-gun Oizumi-machi,36.251089,139.426602,0
524,10,10525,邑楽郡邑楽町,Ora-gun Ora-machi,36.231337,139.47908,0
525,11,11100,さいたま市,Saitama-shi,35.5142,139.3843,2
526,11,11101,さいたま市西区,Saitama-shi Nishi-ku,35.924498,139.562208,1
527,11,11102,さいたま市北区,Saitama-shi Kita-ku,35.931542,139.605794,1
528,11,11103,さいたま市大宮区,Saitama-shi Omiya-ku,35.898711,139.641737,1
529,11,11104,さいたま市見沼区,Saitama-shi Minuma-ku,35.898978,139.668901,1
530,11,11105,さいたま市中央区,Saitama-shi Chuo-ku,35.893904,139.633474,1
531,11,11106,さいたま市桜区,Saitama-shi Sakura-ku,35.837422,139.614145,1
532,11,11107,さいたま市浦和区,Saitama-shi Urawa-ku,35.891587,139.647996,1
533,11,11108,さいたま市南区,Saitama-shi Minami-ku,35.846652,139.659693,1
534,11,11109,さいたま市緑区,Saitama-shi Midori-ku,35.864719,139.692584,1
535,11,11110,さいたま市岩槻区,Saitama-shi Iwatsuki-ku,35.959814,139.698751,1
536,11,11201,川越市,Kawagoe-shi,35.936974,139.423205,0
537,11,11202,熊谷市,Kumagaya-shi,36.142298,139.3872,0
538,11,11203,川口市,Kawaguchi-shi,35.814632,139.729768,0
539,11,11206,行田市,Gyoda-shi,36.132674,139.451444,0
540,11,11207,秩父市,Chichibu-shi,35.996353,139.081551,0
541,11,11208,所沢市,Tokorozawa-shi,35.814929,139.461329,0
542,11,11209,飯能市,Hanno-shi,35.854403,139.312461,0
543,11,11210,加須市,Kazo-shi,36.115971,139.611601,0
544,11,11211,本庄市,Honjo-shi,36.227211,139.193647,0
545,11,11212,東松山市,Higashimatsuyama-shi,35.996817,139.403816,0
546,11,11214,春日部市,Kasukabe-shi,35.975616,139.739504,0
547,11,11215,狭山市,Sayama-shi,35.868961,139.38498,0
548,11,11216,羽生市,Hanyu-shi,36.171959,139.539201,0
549,11,11217,鴻巣市,Konosu-shi,36.059595,139.527377,0
550,11,11218,深谷市,Fukaya-shi,36.201451,139.285414,0
551,11,11219,上尾市,Ageo-shi,35.964724,139.578768,0
552,11,11221,草加市,Soka-shi,35.846446,139.786787,0
553,11,11222,越谷市,Koshigaya-shi,35.884141,139.807147,0
554,11,11223,蕨市,Warabi-shi,35.823089,139.697619,0
555,11,11224,戸田市,Toda-shi,35.827251,139.658908,0
556,11,11225,入間市,Iruma-shi,35.814346,139.328619,0
557,11,11227,朝霞市,Asaka-shi,35.812641,139.581867,0
558,11,11228,志木市,Shiki-shi,35.835372,139.573051,0
559,11,11229,和光市,Wako-shi,35.794677,139.63933,0
560,11,11230,新座市,Niiza-shi,35.818884,139.560309,0
561,11,11231,桶川市,Okegawa-shi,35.998701,139.565958,0
562,11,11232,久喜市,Kuki-shi,36.075873,139.664663,0
563,11,11233,北本市,Kitamoto-shi,36.012849,139.535408,0
564,11,11234,八潮市,Yashio-shi,35.827153,139.827453,0
565,11,11235,富士見市,Fujimi-shi,35.832518,139.560506,0
566,11,11237,三郷市,Misato-shi,35.7951,139.863958,0
567,11,11238,蓮田市,Hasuda-shi,35.976364,139.662758,0
568,11,11239,坂戸市,Sakado-shi,35.969142,139.407513,0
569,11,11240,幸手市,Satte-shi,36.059288,139.725347,0
570,11,11241,鶴ヶ島市,Tsurugashima-shi,35.947686,139.415127,0
571,11,11242,日高市,Hidaka-shi,35.892491,139.333933,0
572,11,11243,吉川市,Yoshikawa-shi,35.878188,139.866809,0
573,11,11245,ふじみ野市,Fujimino-shi,35.878091,139.532605,0
574,11,11246,白岡市,Shiraoka-shi,36.013092,139.654628,0
575,11,11301,北足立郡伊奈町,Kitaadachi-gun Ina-machi,36.002377,139.606648,0
576,11,11324,入間郡三芳町,Iruma-gun Miyoshi-machi,35.83243,139.544689,0
577,11,11326,入間郡毛呂山町,Iruma-gun Moroyama-machi,35.948491,139.312743,0
578,11,11327,入間郡越生町,Iruma-gun Ogose-machi,35.963721,139.300647,0
579,11,11341,比企郡滑川町,Hiki-gun Namegawa-machi,36.04305,139.378443,0
580,11,11342,比企郡嵐山町,Hiki-gun Ranzan-machi,36.049389,139.327472,0
581,11,11343,比企郡小川町,Hiki-gun Ogawa-machi,36.056291,139.28751,0
582,11,11346,比企郡川島町,Hiki-gun Kawajima-machi,35.98748,139.443556,0
583,11,11347,比企郡吉見町,Hiki-gun Yoshimi-machi,36.028035,139.49888,0
584,11,11348,比企郡鳩山町,Hiki-gun Hatoyama-machi,35.990122,139.353168,0
585,11,11349,比企郡ときがわ町,Hiki-gun Tokigawa-machi,36.000173,139.276539,0
586,11,11361,秩父郡横瀬町,Chichibu-gun Yokoze-machi,35.966352,139.154964,0
587,11,11362,秩父郡皆野町,Chichibu-gun Minano-machi,36.086772,139.102271,0
588,11,11363,秩父郡長瀞町,Chichibu-gun Nagatoro-machi,36.113534,139.094564,0
589,11,11365,秩父郡小鹿野町,Chichibu-gun Ogano-machi,36.023045,139.002881,0
590,11,11369,秩父郡東秩父村,Chichibu-gun Higashichichibu-mura,36.061593,139.1965,0
591,11,11381,児玉郡美里町,Kodama-gun Misato-machi,36.192154,139.181177,0
592,11,11383,児玉郡神川町,Kodama-gun Kamikawa-machi,36.217404,139.11947,0
593,11,11385,児玉郡上里町,Kodama-gun Kamisato-machi,36.280547,139.129175,0
594,11,11408,大里郡寄居町,Osato-gun Yorii-machi,36.102683,139.286786,0
595,11,11442,南埼玉郡宮代町,Minamisaitama-gun Miyashiro-machi,36.026683,139.716811,0
596,11,11464,北葛飾郡杉戸町,Kitakatsushika-gun Sugito-machi,36.034694,139.725046,0
597,11,11465,北葛飾郡松伏町,Kitakatsushika-gun Matsubushi-machi,35.920304,139.821673,0
598,12,12100,千葉市,Chiba-shi,35.3626,140.0625,2
599,12,12101,千葉市中央区,Chiba-shi Chuo-ku,35.59724,140.139851,1
600,12,12102,千葉市花見川区,Chiba-shi Hanamigawa-ku,35.657353,140.091029,1
601,12,12103,千葉市稲毛区,Chiba-shi Inage-ku,35.632655,140.105346,1
602,12,12104,千葉市若葉区,Chiba-shi Wakaba-ku,35.653386,140.1345,1
603,12,12105,千葉市緑区,Chiba-shi Midori-ku,35.529696,140.269823,1
604,12,12106,千葉市美浜区,Chiba-shi Mihama-ku,35.629713,140.064054,1
605,12,12202,銚子市,Choshi-shi,35.741354,140.768765,0
606,12,12203,市川市,Ichikawa-shi,35.680621,139.895378,0
607,12,12204,船橋市,Funabashi-shi,35.731294,139.984841,0
608,12,12205,館山市,Tateyama-shi,34.92409,139.8286,0
609,12,12206,木更津市,Kisarazu-shi,35.385167,139.928503,0
610,12,12207,松戸市,Matsudo-shi,35.815309,139.899807,0
611,12,12208,野田市,Noda-shi,35.981714,139.863326,0
612,12,12210,茂原市,Mobara-shi,35.484474,140.356934,0
613,12,12211,成田市,Narita-shi,35.859044,140.382435,0
614,12,12212,佐倉市,Sakura-shi,35.742274,140.141572,0
615,12,12213,東金市,Togane-shi,35.536009,140.400144,0
616,12,12215,旭市,Asahi-shi,35.742174,140.577828,0
617,12,12216,習志野市,Narashino-shi,35.673642,140.001914,0
618,12,12217,柏市,Kashiwa-shi,35.906563,139.939905,0
619,12,12218,勝浦市,Katsura-shi,35.169099,140.247897,0
620,12,12219,市原市,Ichihara-shi,35.467401,140.117944,0
621,12,12220,流山市,Nagareyama-shi,35.898702,139.92474,0
622,12,12221,八千代市,Yachiyo-shi,35.771972,140.092925,0
623,12,12222,我孫子市,Abiko-shi,35.849624,140.121055,0
624,12,12223,鴨川市,Kamogawa-shi,35.141486,140.161968,0
625,12,12224,鎌ヶ谷市,Kamagaya-shi,35.785893,140.009996,0
626,12,12225,君津市,Kimitsu-shi,35.304641,140.069245,0
627,12,12226,富津市,Futtsu-shi,35.201051,139.880138,0
628,12,12227,浦安市,Urayasu-shi,35.644934,139.918976,0
629,12,12228,四街道市,Yotsukaido-shi,35.662563,140.182957,0
630,12,12229,袖ヶ浦市,Sodegaura-shi,35.375384,140.027851,0
631,12,12230,八街市,Yachimata-shi,35.675317,140.336397,0
632,12,12231,印西市,Inzai-shi,35.844549,140.144523,0
633,12,12232,白井市,Shiroi-shi,35.776788,140.055206,0
634,12,12233,富里市,Tomisato-shi,35.751151,140.348095,0
635,12,12234,南房総市,Minamiboso-shi,35.024192,139.901215,0
636,12,12235,匝瑳市,Sosa-shi,35.751692,140.518373,0
637,12,12236,香取市,Katori-shi,35.852291,140.632257,0
638,12,12237,山武市,Sammu-shi,35.644684,140.404955,0
639,12,12238,いすみ市,Isumi-shi,35.302627,140.298044,0
640,12,12239,大網白里市,Oamishirasato-shi,35.524232,140.294263,0
641,12,12322,印旛郡酒々井町,Imba-gun Shisui-machi,35.716486,140.289637,0
642,12,12329,印旛郡栄町,Imba-gun Sakae-machi,35.829739,140.246258,0
643,12,12342,香取郡神崎町,Katori-gun Kozaki-machi,35.903725,140.423934,0
644,12,12347,香取郡多古町,Katori-gun Tako-machi,35.763052,140.445118,0
645,12,12349,香取郡東庄町,Katori-gun Tonosho-machi,35.79578,140.670594,0
646,12,12403,山武郡九十九里町,Sambu-gun Kujukuri-machi,35.523186,140.42949,0
647,12,12409,山武郡芝山町,Sambu-gun Shibayama-machi,35.72341,140.400154,0
648,12,12410,山武郡横芝光町,Sambu-gun Yokoshibahikari-machi,35.701068,140.475295,0
649,12,12421,長生郡一宮町,Chosei-gun Ichinomiya-machi,35.385494,140.379083,0
650,12,12422,長生郡睦沢町,Chosei-gun Mutsuzawa-machi,35.35058,140.337982,0
651,12,12423,長生郡長生村,Chosei-gun Chosei-mura,35.421323,140.375268,0
652,12,12424,長生郡白子町,Chosei-gun Shirako-machi,35.465029,140.396996,0
653,12,12426,長生郡長柄町,Chosei-gun Nagara-machi,35.475329,140.240351,0
654,12,12427,長生郡長南町,Chosei-gun Chonan-machi,35.333204,140.240162,0
655,12,12441,夷隅郡大多喜町,Isumi-gun Otaki-machi,35.212679,140.180765,0
656,12,12443,夷隅郡御宿町,Isumi-gun Onjuku-machi,35.188839,140.375612,0
657,12,12463,安房郡鋸南町,Awa-gun Kyonan-machi,35.14558,139.891292,0
658,13,13101,千代田区,Chiyoda-ku,35.670812,139.754182,3
659,13,13102,中央区,Chuo-ku,35.668796,139.786583,3
660,13,13103,港区,Minato-ku,35.66849,139.746192,3
661,13,13104,新宿区,Shinjuku-ku,35.69995,139.735037,3
662,13,13105,文京区,Bunkyo-ku,35.72349,139.749553,3
663,13,13106,台東区,Taito-ku,35.718801,139.781518,3
664,13,13107,墨田区,Sumida-ku,35.694484,139.804232,3
665,13,13108,江東区,Koto-ku,35.629417,139.796671,3
666,13,13109,品川区,Shinagawa-ku,35.598187,139.758968,3
667,13,13110,目黒区,Meguro-ku,35.651328,139.691599,3
668,13,13111,大田区,Ota-ku,35.549786,139.786522,3
669,13,13112,世田谷区,Setagaya-ku,35.669726,139.620901,3
670,13,13113,渋谷区,Shibuya-ku,35.668183,139.709361,3
671,13,13114,中野区,Nakano-ku,35.724688,139.65612,3
672,13,13115,杉並区,Suginami-ku,35.671529,139.646176,3
673,13,13116,豊島区,Toshima-ku,35.735037,139.749607,3
674,13,13117,北区,Kita-ku,35.754421,139.745645,3
675,13,13118,荒川区,Arakawa-ku,35.752063,139.76361,3
676,13,13119,板橋区,Itabashi-ku,35.752364,139.676337,3
677,13,13120,練馬区,Nerima-ku,35.757756,139.620976,3
678,13,13121,足立区,Adachi-ku,35.740193,139.797811,3
679,13,13122,葛飾区,Katsushika-ku,35.755326,139.871866,3
680,13,13123,江戸川区,Edogawa-ku,35.693059,139.893822,3
681,13,13201,八王子市,Hachioji-shi,35.617579,139.335315,3
682,13,13202,立川市,Tachikawa-shi,35.727354,139.36986,3
683,13,13203,武蔵野市,Musashino-shi,35.700419,139.589688,3
684,13,13204,三鷹市,Mitaka-shi,35.673275,139.580228,3
685,13,13205,青梅市,Ome-shi,35.830314,139.263568,3
686,13,13206,府中市,Fuchu-shi,35.670488,139.45922,3
687,13,13207,昭島市,Akishima-shi,35.696368,139.367957,3
688,13,13208,調布市,Chofu-shi,35.636327,139.556512,3
689,13,13209,町田市,Machida-shi,35.542217,139.467602,3
690,13,13210,小金井市,Koganei-shi,35.689652,139.500723,3
691,13,13211,小平市,Kodaira-shi,35.728845,139.49856,3
692,13,13212,日野市,Hino-shi,35.655453,139.406756,3
693,13,13213,東村山市,Higashimurayama-shi,35.749897,139.482747,3
694,13,13214,国分寺市,Kokubunji-shi,35.702823,139.479679,3
695,13,13215,国立市,Kunitachi-shi,35.674105,139.445242,3
696,13,13218,福生市,Fussa-shi,35.748842,139.329707,3
697,13,13219,狛江市,Komae-shi,35.626625,139.574252,3
698,13,13220,東大和市,Higashiyamato-shi,35.751978,139.435417,3
699,13,13221,清瀬市,Kiyose-shi,35.776137,139.499524,3
700,13,13222,東久留米市,Higashikurume-shi,35.753699,139.496259,3
701,13,13223,武蔵村山市,Musashimurayama-shi,35.743657,139.359624,3
702,13,13224,多摩市,Tama-shi,35.648156,139.442913,3
703,13,13225,稲城市,Inagi-shi,35.644584,139.477742,3
704,13,13227,羽村市,Hamura-shi,35.75369,139.338544,3
705,13,13228,あきる野市,Akiruno-shi,35.718576,139.250718,3
706,13,13229,西東京市,Nishitokyo-shi,35.75307,139.55756,3
707,13,13303,西多摩郡瑞穂町,Nishitama-gun Mizuho-machi,35.761085,139.358706,3
708,13,13305,西多摩郡日の出町,Nishitama-gun Hinode-machi,35.764089,139.216731,3
709,13,13307,西多摩郡檜原村,Nishitama-gun Hinohara-mura,35.728232,139.161497,3
710,13,13308,西多摩郡奥多摩町,Nishitama-gun Okutama-machi,35.749685,139.022509,3
711,13,13361,大島町,Oshima-machi,34.716898,139.377229,3
712,13,13363,新島村,Niijima-mura,34.326527,139.213502,3
713,13,13364,神津島村,Kozushima-mura,34.240715,139.141619,3
714,13,13381,三宅村,Miyake-mura,34.064749,139.496507,3
715,13,13382,御蔵島村,Mikurajima-mura,33.897291,139.595894,3
716,13,13401,八丈町,Hachijo-machi,33.093013,139.84051,3
717,13,13402,青ヶ島村,Aogashima-mura,32.452932,139.767925,3
718,13,13421,小笠原村,Ogasawara-mura,24.779258,141.319783,3
719,14,14100,横浜市,Yokohama-shi,35.2639,139.3817,2
720,14,14101,横浜市鶴見区,Yokohama-shi Tsurumi-ku,35.502643,139.680165,1
721,14,14102,横浜市神奈川区,Yokohama-shi Kanagawa-ku,35.469008,139.621716,1
722,14,14103,横浜市西区,Yokohama-shi Nishi-ku,35.467075,139.619367,1
723,14,14104,横浜市中区,Yokohama-shi Naka-ku,35.422175,139.673702,1
724,14,14105,横浜市南区,Yokohama-shi Minami-ku,35.43808,139.621009,1
725,14,14106,横浜市保土ケ谷区,Yokohama-shi Hodogaya-ku,35.461988,139.571635,1
726,14,14107,横浜市磯子区,Yokohama-shi Isogo-ku,35.420463,139.620282,1
727,14,14108,横浜市金沢区,Yokohama-shi Kanazawa-ku,35.337428,139.622072,1
728,14,14109,横浜市港北区,Yokohama-shi Kohoku-ku,35.522765,139.617895,1
729,14,14110,横浜市戸塚区,Yokohama-shi Totsuka-ku,35.386415,139.502309,1
730,14,14111,横浜市港南区,Yokohama-shi Konan-ku,35.415704,139.559665,1
731,14,14112,横浜市旭区,Yokohama-shi Asahi-ku,35.503989,139.498487,1
732,14,14113,横浜市緑区,Yokohama-shi Midori-ku,35.506129,139.548462,1
733,14,14114,横浜市瀬谷区,Yokohama-shi Seya-ku,35.440488,139.498535,1
734,14,14115,横浜市栄区,Yokohama-shi Sakae-ku,35.352083,139.579606,1
735,14,14116,横浜市泉区,Yokohama-shi Izumi-ku,35.40877,139.49908,1
736,14,14117,横浜市青葉区,Yokohama-shi Aoba-ku,35.569834,139.506229,1
737,14,14118,横浜市都筑区,Yokohama-shi Tsuzuki-ku,35.550709,139.59042,1
738,14,14130,川崎市,Kawasaki-shi,35.3148,139.4209,2
739,14,14131,川崎市川崎区,Kawasaki-shi Kawasaki-ku,35.49719,139.753955,1
740,14,14132,川崎市幸区,Kawasaki-shi Saiwai-ku,35.559237,139.669449,1
741,14,14133,川崎市中原区,Kawasaki-shi Nakahara-ku,35.58722,139.630813,1
742,14,14134,川崎市高津区,Kawasaki-shi Takatsu-ku,35.589939,139.613198,1
743,14,14135,川崎市多摩区,Kawasaki-shi Tama-ku,35.628776,139.558865,1
744,14,14136,川崎市宮前区,Kawasaki-shi Miyamae-ku,35.588048,139.591687,1
745,14,14137,川崎市麻生区,Kawasaki-shi Asao-ku,35.585701,139.497123,1
746,14,14150,相模原市,Sagamihara-shi,35.3417,139.2224,2
747,14,14151,相模原市緑区,Sagamihara-shi Midori-ku,35.568457,139.329062,1
748,14,14152,相模原市中央区,Sagamihara-shi Chuo-ku,35.55588,139.397116,1
749,14,14153,相模原市南区,Sagamihara-shi Minami-ku,35.50144,139.404535,1
750,14,14201,横須賀市,Yokosuka-shi,35.206801,139.617916,0
751,14,14203,平塚市,Hiratsuka-shi,35.320696,139.370693,0
752,14,14204,鎌倉市,Kamakura-shi,35.320847,139.497922,0
753,14,14205,藤沢市,Fujisawa-shi,35.335188,139.497169,0
754,14,14206,小田原市,Odawara-shi,35.248714,139.12328,0
755,14,14207,茅ヶ崎市,Chigasaki-shi,35.328485,139.375121,0
756,14,14208,逗子市,Zushi-shi,35.281544,139.610675,0
757,14,14210,三浦市,Miura-shi,35.172833,139.628053,0
758,14,14211,秦野市,Hadano-shi,35.361692,139.24339,0
759,14,14212,厚木市,Atsugi-shi,35.415655,139.352386,0
760,14,14213,大和市,Yamato-shi,35.507309,139.4337,0
761,14,14214,伊勢原市,Isehara-shi,35.42717,139.246068,0
762,14,14215,海老名市,Ebina-shi,35.449496,139.382276,0
763,14,14216,座間市,Zama-shi,35.501027,139.414615,0
764,14,14217,南足柄市,Minamiashigara-shi,35.29364,139.13307,0
765,14,14218,綾瀬市,Ayase-shi,35.420321,139.442378,0
766,14,14301,三浦郡葉山町,Miura-gun Hayama-machi,35.258634,139.593622,0
767,14,14321,高座郡寒川町,Koza-gun Samukawa-machi,35.365845,139.37102,0
768,14,14341,中郡大磯町,Naka-gun Oiso-machi,35.313178,139.307282,0
769,14,14342,中郡二宮町,Naka-gun Ninomiya-machi,35.295391,139.24855,0
770,14,14361,足柄上郡中井町,Ashigarakami-gun Nakai-machi,35.337848,139.23278,0
771,14,14362,足柄上郡大井町,Ashigarakami-gun Oi-machi,35.340438,139.176233,0
772,14,14363,足柄上郡松田町,Ashigarakami-gun Matsuda-machi,35.405665,139.124082,0
773,14,14364,足柄上郡山北町,Ashigarakami-gun Yamakita-machi,35.366077,139.037632,0
774,14,14366,足柄上郡開成町,Ashigarakami-gun Kaisei-machi,35.336532,139.119715,0
775,14,14382,足柄下郡箱根町,Ashigarashimo-gun Hakone-machi,35.2606,139.004544,0
776,14,14383,足柄下郡真鶴町,Ashigarashimo-gun Manazuru-machi,35.152756,139.138391,0
777,14,14384,足柄下郡湯河原町,Ashigarashimo-gun Yugawara-machi,35.171964,139.101959,0
778,14,14401,愛甲郡愛川町,Aiko-gun Aikawa-machi,35.517047,139.336938,0
779,14,14402,愛甲郡清川村,Aiko-gun Kiyokawa-mura,35.484274,139.262291,0
780,15,15100,新潟市,Niigata-shi,37.5458,139.0211,2
781,15,15101,新潟市北区,Niigata-shi Kita-ku,37.918613,139.22574,1
782,15,15102,新潟市東区,Niigata-shi Higashi-ku,37.939391,139.08109,1
783,15,15103,新潟市中央区,Niigata-shi Chuo-ku,37.925918,139.052581,1
784,15,15104,新潟市江南区,Niigata-shi Konan-ku,37.857526,139.139964,1
785,15,15105,新潟市秋葉区,Niigata-shi Akiha-ku,37.833554,139.101512,1
786,15,15106,新潟市南区,Niigata-shi Minami-ku,37.794141,139.055763,1
787,15,15107,新潟市西区,Niigata-shi Nishi-ku,37.901984,138.992411,1
788,15,15108,新潟市西蒲区,Niigata-shi Nishikan-ku,37.744164,138.884781,1
789,15,15202,長岡市,Nagaoka-shi,37.41199,138.855164,0
790,15,15204,三条市,Sanjo-shi,37.631986,138.960651,0
791,15,15205,柏崎市,Kashiwazaki-shi,37.430963,138.600198,0
792,15,15206,新発田市,Shibata-shi,37.917364,139.328876,0
793,15,15208,小千谷市,Ojiya-shi,37.305207,138.812667,0
794,15,15209,加茂市,Kamo-shi,37.662893,139.055732,0
795,15,15210,十日町市,Tokamachi-shi,37.157891,138.626825,0
796,15,15211,見附市,Mitsuke-shi,37.515292,138.91702,0
797,15,15212,村上市,Murakami-shi,38.195919,139.54413,0
798,15,15213,燕市,Tsubame-shi,37.646584,138.866857,0
799,15,15216,糸魚川市,Itoigawa-shi,37.039692,137.86368,0
800,15,15217,妙高市,Myoko-shi,37.027329,138.253429,0
801,15,15218,五泉市,Gosen-shi,37.685349,139.15247,0
802,15,15222,上越市,Joetsu-shi,37.170515,138.243006,0
803,15,15223,阿賀野市,Agano-shi,37.825658,139.229986,0
804,15,15224,佐渡市,Sado-shi,38.034294,138.242337,0
805,15,15225,魚沼市,Uonuma-shi,37.219496,138.951683,0
806,15,15226,南魚沼市,Minamiuonuma-shi,37.050756,138.960347,0
807,15,15227,胎内市,Tainai-shi,38.056152,139.397416,0
808,15,15307,北蒲原郡聖籠町,Kitakambara-gun Seiro-machi,37.993366,139.245219,0
809,15,15342,西蒲原郡弥彦村,Nishikambara-gun Yahiko-mura,37.700262,138.849326,0
810,15,15361,南蒲原郡田上町,Minamikambara-gun Tagami-machi,37.682504,139.044367,0
811,15,15385,東蒲原郡阿賀町,Higashikambara-gun Aga-machi,37.689142,139.419342,0
812,15,15405,三島郡出雲崎町,Santo-gun Izumozaki-machi,37.502464,138.728008,0
813,15,15461,南魚沼郡湯沢町,Minamiuonuma-gun Yuzawa-machi,36.923889,138.813471,0
814,15,15482,中魚沼郡津南町,Nakauonuma-gun Tsunan-machi,36.974486,138.651092,0
815,15,15504,刈羽郡刈羽村,Kariwa-gun Kariwa-mura,37.41773,138.651354,0
816,15,15581,岩船郡関川村,Iwafune-gun Sekikawa-mura,38.045989,139.581402,0
817,15,15586,岩船郡粟島浦村,Iwafune-gun Awashimaura-mura,38.44737,139.226326,0
818,16,16201,富山市,Toyama-shi,36.685821,137.207233,0
819,16,16202,高岡市,Takaoka-shi,36.731428,137.021349,0
820,16,16204,魚津市,Uozu-shi,36.821946,137.419049,0
821,16,16205,氷見市,Himi-shi,36.884243,136.986391,0
822,16,16206,滑川市,Namerikawa-shi,36.733028,137.364658,0
823,16,16207,黒部市,Kurobe-shi,36.846294,137.453526,0
824,16,16208,砺波市,Tonami-shi,36.651684,136.990806,0
825,16,16209,小矢部市,Oyabe-shi,36.658977,136.887375,0
826,16,16210,南砺市,Nanto-shi,36.430688,136.914051,0
827,16,16211,射水市,Imizu-shi,36.676826,137.066661,0
828,16,16321,中新川郡舟橋村,Nakaniikawa-gun Funahashi-mura,36.703872,137.301579,0
829,16,16322,中新川郡上市町,Nakaniikawa-gun Kamiichi-machi,36.707954,137.334318,0
830,16,16323,中新川郡立山町,Nakaniikawa-gun Tateyama-machi,36.583675,137.581904,0
831,16,16342,下新川郡入善町,Shimoniikawa-gun Nyuzen-machi,36.919168,137.484518,0
832,16,16343,下新川郡朝日町,Shimoniikawa-gun Asahi-machi,36.95944,137.545975,0
833,17,17201,金沢市,Kanazawa-shi,36.571525,136.656136,0
834,17,17202,七尾市,Nanao-shi,37.044229,136.966663,0
835,17,17203,小松市,Komatsu-shi,36.399515,136.445495,0
836,17,17204,輪島市,Wajima-shi,37.380985,136.818404,0
837,17,17205,珠洲市,Suzu-shi,37.438626,137.264129,0
838,17,17206,加賀市,Kaga-shi,36.340309,136.381082,0
839,17,17207,羽咋市,Hakui-shi,36.878001,136.772127,0
840,17,17209,かほく市,Kahoku-shi,36.729045,136.696116,0
841,17,17210,白山市,Hakusan-shi,36.339795,136.596001,0
842,17,17211,能美市,Nomi-shi,36.446746,136.515168,0
843,17,17212,野々市市,Nonoichi-shi,36.510221,136.612654,0
844,17,17324,能美郡川北町,Nomi-gun Kawakita-machi,36.468136,136.491066,0
845,17,17361,河北郡津幡町,Kahoku-gun Tsubata-machi,36.646128,136.788988,0
846,17,17365,河北郡内灘町,Kahoku-gun Uchinada-machi,36.634066,136.635087,0
847,17,17384,羽咋郡志賀町,Hakui-gun Shika-machi,37.162037,136.681454,0
848,17,17386,羽咋郡宝達志水町,Hakui-gun Hodatsushimizu-cho,36.791269,136.778056,0
849,17,17407,鹿島郡中能登町,Kashima-gun Nakanoto-machi,36.974945,136.906528,0
850,17,17461,鳳珠郡穴水町,Hosu-gun Anamizu-machi,37.220726,136.982184,0
851,17,17463,鳳珠郡能登町,Hosu-gun Noto-cho,37.33241,137.23205,0
852,18,18201,福井市,Fukui-shi,35.994514,136.146607,0
853,18,18202,敦賀市,Tsuruga-shi,35.655513,136.06831,0
854,18,18204,小浜市,Obama-shi,35.44583,135.683899,0
855,18,18205,大野市,Ono-shi,35.971514,136.485796,0
856,18,18206,勝山市,Katsuyama-shi,36.048632,136.511828,0
857,18,18207,鯖江市,Sabae-shi,35.944274,136.187465,0
858,18,18208,あわら市,Awara-shi,36.231086,136.247967,0
859,18,18209,越前市,Echizen-shi,35.932367,136.311394,0
860,18,18210,坂井市,Sakai-shi,36.160439,136.238345,0
861,18,18322,吉田郡永平寺町,Yoshida-gun Eiheiji-cho,36.077441,136.377695,0
862,18,18382,今立郡池田町,Imadate-gun Ikeda-cho,35.90194,136.37912,0
863,18,18404,南条郡南越前町,Nanjo-gun Minamiechizen-cho,35.758799,136.206748,0
864,18,18423,丹生郡越前町,Nyu-gun Echizen-cho,35.96271,136.1071,0
865,18,18442,三方郡美浜町,Mikata-gun Mihama-cho,35.60087,135.959182,0
866,18,18481,大飯郡高浜町,Oi-gun Takahama-cho,35.484779,135.504888,0
867,18,18483,大飯郡おおい町,Oi-gun Oi-cho,35.443055,135.561644,0
868,18,18501,三方上中郡若狭町,Mikatakaminaka-gun Wakasa-cho,35.525772,135.909444,0
869,19,19201,甲府市,Kofu-shi,35.5253,138.620758,0
870,19,19202,富士吉田市,Fujiyoshida-shi,35.487726,138.818102,0
871,19,19204,都留市,Tsuru-shi,35.585062,138.912865,0
872,19,19205,山梨市,Yamanashi-shi,35.67186,138.699282,0
873,19,19206,大月市,Otsuki-shi,35.598221,138.992645,0
874,19,19207,韮崎市,Nirasaki-shi,35.676214,138.471641,0
875,19,19208,南アルプス市,Minamiarupusu-shi,35.575175,138.490859,0
876,19,19209,北杜市,Hokuto-shi,35.762416,138.337674,0
877,19,19210,甲斐市,Kai-shi,35.671501,138.531924,0
878,19,19211,笛吹市,Fuefuki-shi,35.656051,138.635975,0
879,19,19212,上野原市,Uenohara-shi,35.568936,139.067339,0
880,19,19213,甲州市,Koshu-shi,35.663177,138.728018,0
881,19,19214,中央市,Chuo-shi,35.581203,138.503638,0
882,19,19346,西八代郡市川三郷町,Nishiyatsushiro-gun Ichikawamisato,35.492897,138.483474,0
883,19,19364,南巨摩郡早川町,Minamikoma-gun Hayakawa-cho,35.421015,138.362571,0
884,19,19365,南巨摩郡身延町,Minamikoma-gun Minobu-cho,35.334011,138.373845,0
885,19,19366,南巨摩郡南部町,Minamikoma-gun Nambu-cho,35.260215,138.501331,0
886,19,19368,南巨摩郡富士川町,Minamikoma-gun Fujikawa-cho,35.516709,138.388962,0
887,19,19384,中巨摩郡昭和町,Nakakoma-gun Showa-cho,35.646242,138.547135,0
888,19,19422,南都留郡道志村,Minamitsuru-gun Doshi-mura,35.472019,138.942141,0
889,19,19423,南都留郡西桂町,Minamitsuru-gun Nishikatsura-cho,35.513429,138.845507,0
890,19,19424,南都留郡忍野村,Minamitsuru-gun Oshino-mura,35.461574,138.870388,0
891,19,19425,南都留郡山中湖村,Minamitsuru-gun Yamanakako-mura,35.424642,138.891767,0
892,19,19429,南都留郡鳴沢村,Minamitsuru-gun Narusawa-mura,35.48621,138.701929,0
893,19,19430,南都留郡富士河口湖町,Minamitsuru-gun Fujikawaguchiko Mac,35.414104,138.626889,0
894,19,19442,北都留郡小菅村,Kitatsuru-gun Kosuge-mura,35.760808,138.977312,0
895,19,19443,北都留郡丹波山村,Kitatsuru-gun Tabayama-mura,35.787144,138.924892,0
896,20,20201,長野市,Nagano-shi,36.617509,138.18148,0
897,20,20202,松本市,Matsumoto-shi,36.359378,137.992436,0
898,20,20203,上田市,Ueda-shi,36.383098,138.285921,0
899,20,20204,岡谷市,Okaya-shi,36.07702,138.050334,0
900,20,20205,飯田市,Iida-shi,35.516896,137.815163,0
901,20,20206,諏訪市,Suwa-shi,36.033227,138.125211,0
902,20,20207,須坂市,Suzaka-shi,36.678538,138.313381,0
903,20,20208,小諸市,Komoro-shi,36.326878,138.422123,0
904,20,20209,伊那市,Ina-shi,35.844037,137.943096,0
905,20,20210,駒ヶ根市,Komagane-shi,35.732245,137.938003,0
906,20,20211,中野市,Nakano-shi,36.792838,138.373788,0
907,20,20212,大町市,Omachi-shi,36.52463,137.870628,0
908,20,20213,飯山市,Iiyama-shi,36.874538,138.324829,0
909,20,20214,茅野市,Chino-shi,35.995707,138.22845,0
910,20,20215,塩尻市,Shiojiri-shi,36.105715,137.96727,0
911,20,20217,佐久市,Saku-shi,36.233296,138.462734,0
912,20,20218,千曲市,Chikuma-shi,36.549417,138.146838,0
913,20,20219,東御市,Tomi-shi,36.361361,138.330531,0
914,20,20220,安曇野市,Azumino-shi,36.345441,137.934429,0
915,20,20303,南佐久郡小海町,Minamisaku-gun Komi-machi,36.046104,138.446402,0
916,20,20304,南佐久郡川上村,Minamisaku-gun Kawakami-mura,35.932494,138.68284,0
917,20,20305,南佐久郡南牧村,Minamisaku-gun Minamimaki-mura,35.975729,138.462198,0
918,20,20306,南佐久郡南相木村,Minamisaku-gun Minamiaiki-mura,36.039919,138.49411,0
919,20,20307,南佐久郡北相木村,Minamisaku-gun Kitaaiki-mura,36.062461,138.510228,0
920,20,20309,南佐久郡佐久穂町,Minamisaku-gun Sakuho-machi,36.12409,138.588002,0
921,20,20321,北佐久郡軽井沢町,Kitasaku-gun Karuizawa-machi,36.337902,138.54248,0
922,20,20323,北佐久郡御代田町,Kitasaku-gun Miyota-machi,36.292905,138.52337,0
923,20,20324,北佐久郡立科町,Kitasaku-gun Tateshina-machi,36.236881,138.299684,0
924,20,20349,小県郡青木村,Chiisagata-gun Aoki-mura,36.357748,138.12647,0
925,20,20350,小県郡長和町,Chiisagata-gun Nagawa-machi,36.2206,138.250423,0
926,20,20361,諏訪郡下諏訪町,Suwa-gun Shimosuwa-machi,36.07342,138.081659,0
927,20,20362,諏訪郡富士見町,Suwa-gun Fujimi-machi,35.89655,138.255691,0
928,20,20363,諏訪郡原村,Suwa-gun Hara-mura,35.968757,138.196342,0
929,20,20382,上伊那郡辰野町,Kamiina-gun Tatsuno-machi,35.968789,138.003733,0
930,20,20383,上伊那郡箕輪町,Kamiina-gun Minowa-machi,35.906965,137.950454,0
931,20,20384,上伊那郡飯島町,Kamiina-gun Iijima-machi,35.68409,137.897373,0
932,20,20385,上伊那郡南箕輪村,Kamiina-gun Minamiminowa-mura,35.864863,137.960291,0
933,20,20386,上伊那郡中川村,Kamiina-gun Nakagawa-mura,35.641711,137.968361,0
934,20,20388,上伊那郡宮田村,Kamiina-gun Miyada-mura,35.770547,137.94313,0
935,20,20402,下伊那郡松川町,Shimoina-gun Matsukawa-machi,35.579231,137.94691,0
936,20,20403,下伊那郡高森町,Shimoina-gun Takamori-machi,35.574931,137.866626,0
937,20,20404,下伊那郡阿南町,Shimoina-gun Anan-cho,35.339317,137.831321,0
938,20,20407,下伊那郡阿智村,Shimoina-gun Achi-mura,35.454668,137.750308,0
939,20,20409,下伊那郡平谷村,Shimoina-gun Hiraya-mura,35.337489,137.652694,0
940,20,20410,下伊那郡根羽村,Shimoina-gun Neba-mura,35.30061,137.616933,0
941,20,20411,下伊那郡下條村,Shimoina-gun Shimojo-mura,35.372441,137.764185,0
942,20,20412,下伊那郡売木村,Shimoina-gun Urugi-mura,35.289736,137.687879,0
943,20,20413,下伊那郡天龍村,Shimoina-gun Tenryu-mura,35.251689,137.798037,0
944,20,20414,下伊那郡泰阜村,Shimoina-gun Yasuoka-mura,35.377597,137.8287,0
945,20,20415,下伊那郡喬木村,Shimoina-gun Takagi-mura,35.491861,137.952999,0
946,20,20416,下伊那郡豊丘村,Shimoina-gun Toyoka-mura,35.562012,137.945166,0
947,20,20417,下伊那郡大鹿村,Shimoina-gun Oshika-mura,35.531614,138.077124,0
948,20,20422,木曽郡上松町,Kiso-gun Agematsu-machi,35.788827,137.692696,0
949,20,20423,木曽郡南木曽町,Kiso-gun Nagiso-machi,35.565104,137.60396,0
950,20,20425,木曽郡木祖村,Kiso-gun Kiso-mura,36.017795,137.751905,0
951,20,20429,木曽郡王滝村,Kiso-gun Otaki-mura,35.848492,137.546506,0
952,20,20430,木曽郡大桑村,Kiso-gun Okuwa-mura,35.705142,137.715367,0
953,20,20432,木曽郡木曽町,Kiso-gun Kiso-machi,35.969403,137.656763,0
954,20,20446,東筑摩郡麻績村,Higashichikuma-gun Omi-mura,36.458354,138.047985,0
955,20,20448,東筑摩郡生坂村,Higashichikuma-gun Ikusaka-mura,36.426035,137.91966,0
956,20,20450,東筑摩郡山形村,Higashichikuma-gun Yamagata-mura,36.183094,137.882702,0
957,20,20451,東筑摩郡朝日村,Higashichikuma-gun Asahi-mura,36.12615,137.87636,0
958,20,20452,東筑摩郡筑北村,Higashichikuma-gun Chikuhoku-mura,36.385488,138.054962,0
959,20,20481,北安曇郡池田町,Kitaazumi-gun Ikeda-machi,36.404205,137.887261,0
960,20,20482,北安曇郡松川村,Kitaazumi-gun Matsukawa-mura,36.410962,137.862022,0
961,20,20485,北安曇郡白馬村,Kitaazumi-gun Hakuba-mura,36.652257,137.849888,0
962,20,20486,北安曇郡小谷村,Kitaazumi-gun Otari-mura,36.864535,137.917092,0
963,20,20521,埴科郡坂城町,Hanishina-gun Sakaki-machi,36.438706,138.168853,0
964,20,20541,上高井郡小布施町,Kamitakai-gun Obuse-machi,36.699012,138.294058,0
965,20,20543,上高井郡高山村,Kamitakai-gun Takayama-mura,36.678003,138.43584,0
966,20,20561,下高井郡山ノ内町,Shimotakai-gun Yamanochi-machi,36.732142,138.415928,0
967,20,20562,下高井郡木島平村,Shimotakai-gun Kijimadaira-mura,36.860405,138.464316,0
968,20,20563,下高井郡野沢温泉村,Shimotakai-gun Nozawaonsen-mura,36.929657,138.426864,0
969,20,20583,上水内郡信濃町,Kamiminochi-gun Shinano-machi,36.814679,138.26158,0
970,20,20588,上水内郡小川村,Kamiminochi-gun Ogawa-mura,36.649573,137.994064,0
971,20,20590,上水内郡飯綱町,Kamiminochi-gun Iizuna-machi,36.762996,138.287712,0
972,20,20602,下水内郡栄村,Shimominochi-gun Sakae-mura,36.858235,138.609995,0
973,21,21201,岐阜市,Gifu-shi,35.420492,136.764174,0
974,21,21202,大垣市,Ogaki-shi,35.395512,136.597244,0
975,21,21203,高山市,Takayama-shi,36.142345,137.256988,0
976,21,21204,多治見市,Tajimi-shi,35.3331,137.127225,0
977,21,21205,関市,Seki-shi,35.482293,136.920663,0
978,21,21206,中津川市,Nakatsugawa-shi,35.401929,137.516414,0
979,21,21207,美濃市,Mino-shi,35.53218,136.89121,0
980,21,21208,瑞浪市,Mizunami-shi,35.383997,137.230108,0
981,21,21209,羽島市,Hashima-shi,35.352431,136.727176,0
982,21,21210,恵那市,Ena-shi,35.298233,137.395775,0
983,21,21211,美濃加茂市,Minokamo-shi,35.513452,137.010952,0
984,21,21212,土岐市,Toki-shi,35.356349,137.175795,0
985,21,21213,各務原市,Kakamigahara-shi,35.422189,136.943092,0
986,21,21214,可児市,Kani-shi,35.394266,137.014561,0
987,21,21215,山県市,Yamagata-shi,35.612147,136.78258,0
988,21,21216,瑞穂市,Mizuho-shi,35.419565,136.642732,0
989,21,21217,飛騨市,Hida-shi,36.313326,137.312101,0
990,21,21218,本巣市,Motosu-shi,35.441528,136.638497,0
991,21,21219,郡上市,Gujo-shi,35.922028,136.939302,0
992,21,21220,下呂市,Gero-shi,35.786543,137.263576,0
993,21,21221,海津市,Kaizu-shi,35.228767,136.669667,0
994,21,21302,羽島郡岐南町,Hashima-gun Ginan-cho,35.378917,136.765645,0
995,21,21303,羽島郡笠松町,Hashima-gun Kasamatsu-cho,35.366834,136.764894,0
996,21,21341,養老郡養老町,Yoro-gun Yoro-cho,35.256983,136.584193,0
997,21,21361,不破郡垂井町,Fuwa-gun Tarui-cho,35.371169,136.549494,0
998,21,21362,不破郡関ケ原町,Fuwa-gun Sekigahara-cho,35.329498,136.434151,0
999,21,21381,安八郡神戸町,Ampachi-gun Godo-cho,35.401219,136.59756,0
1000,21,21382,安八郡輪之内町,Ampachi-gun Wanochi-cho,35.293989,136.6606,0
1001,21,21383,安八郡安八町,Ampachi-gun Ampachi-cho,35.325597,136.658055,0
1002,21,21401,揖斐郡揖斐川町,Ibi-gun Ibigawa-cho,35.477785,136.527038,0
1003,21,21403,揖斐郡大野町,Ibi-gun Ono-cho,35.458007,136.639668,0
1004,21,21404,揖斐郡池田町,Ibi-gun Ikeda-cho,35.438732,136.569528,0
1005,21,21421,本巣郡北方町,Motosu-gun Kitagata-cho,35.440742,136.694116,0
1006,21,21501,加茂郡坂祝町,Kamo-gun Sakahogi-cho,35.446007,136.988176,0
1007,21,21502,加茂郡富加町,Kamo-gun Tomika-cho,35.496609,136.958108,0
1008,21,21503,加茂郡川辺町,Kamo-gun Kawabe-cho,35.498907,137.06868,0
1009,21,21504,加茂郡七宗町,Kamo-gun Hichiso-cho,35.589429,137.082972,0
1010,21,21505,加茂郡八百津町,Kamo-gun Yaotsu-cho,35.463249,137.126773,0
1011,21,21506,加茂郡白川町,Kamo-gun Shirakawa-cho,35.554193,137.257586,0
1012,21,21507,加茂郡東白川村,Kamo-gun Higashishirakawa-mura,35.652923,137.385277,0
1013,21,21521,可児郡御嵩町,Kani-gun Mitake-cho,35.431366,137.153978,0
1014,21,21604,大野郡白川村,Ono-gun Shirakawa-mura,36.341283,136.919633,0
1015,22,22100,静岡市,Shizuoka-shi,34.5837,138.2258,2
1016,22,22101,静岡市葵区,Shizuoka-shi Aoi-ku,34.978092,138.392224,1
1017,22,22102,静岡市駿河区,Shizuoka-shi Suruga-ku,34.935385,138.362507,1
1018,22,22103,静岡市清水区,Shizuoka-shi Shimizu-ku,35.016462,138.48823,1
1019,22,22130,浜松市,Hamamatsu-shi,34.4239,137.4336,2
1020,22,22131,浜松市中区,Hamamatsu-shi Naka-ku,34.708039,137.746827,1
1021,22,22132,浜松市東区,Hamamatsu-shi Higashi-ku,34.767533,137.753938,1
1022,22,22133,浜松市西区,Hamamatsu-shi Nishi-ku,34.745976,137.67045,1
1023,22,22134,浜松市南区,Hamamatsu-shi Minami-ku,34.716112,137.781322,1
1024,22,22135,浜松市北区,Hamamatsu-shi Kita-ku,34.834189,137.675266,1
1025,22,22136,浜松市浜北区,Hamamatsu-shi Hamakita-ku,34.802688,137.807165,1
1026,22,22137,浜松市天竜区,Hamamatsu-shi Tenryu-ku,34.865305,137.780628,1
1027,22,22203,沼津市,Numazu-shi,35.097243,138.858599,0
1028,22,22205,熱海市,Atami-shi,35.106068,139.046549,0
1029,22,22206,三島市,Mishima-shi,35.10508,138.920886,0
1030,22,22207,富士宮市,Fujinomiya-shi,35.25145,138.588399,0
1031,22,22208,伊東市,Ito-shi,34.864229,139.074956,0
1032,22,22209,島田市,Shimada-shi,34.831401,138.187966,0
1033,22,22210,富士市,Fuji-shi,35.156038,138.678192,0
1034,22,22211,磐田市,Iwata-shi,34.708885,137.810554,0
1035,22,22212,焼津市,Yaizu-shi,34.804532,138.259178,0
1036,22,22213,掛川市,Kakegawa-shi,34.770586,138.028501,0
1037,22,22214,藤枝市,Fujieda-shi,34.856244,138.248834,0
1038,22,22215,御殿場市,Gotemba-shi,35.283449,138.884754,0
1039,22,22216,袋井市,Fukuroi-shi,34.747333,137.954955,0
1040,22,22219,下田市,Shimoda-shi,34.714225,138.916736,0
1041,22,22220,裾野市,Susono-shi,35.207141,138.906795,0
1042,22,22221,湖西市,Kosai-shi,34.68784,137.573206,0
1043,22,22222,伊豆市,Izu-shi,34.933156,138.926449,0
1044,22,22223,御前崎市,Omaezaki-shi,34.643948,138.127084,0
1045,22,22224,菊川市,Kikugawa-shi,34.75696,138.094911,0
1046,22,22225,伊豆の国市,Izunokuni-shi,35.02655,138.93921,0
1047,22,22226,牧之原市,Makinohara-shi,34.708412,138.200062,0
1048,22,22301,賀茂郡東伊豆町,Kamo-gun Higashiizu-cho,34.785806,139.035565,0
1049,22,22302,賀茂郡河津町,Kamo-gun Kawazu-cho,34.78358,138.907753,0
1050,22,22304,賀茂郡南伊豆町,Kamo-gun Minamiizu-cho,34.665353,138.886337,0
1051,22,22305,賀茂郡松崎町,Kamo-gun Matsuzaki-cho,34.746123,138.82856,0
1052,22,22306,賀茂郡西伊豆町,Kamo-gun Nishiizu-cho,34.828137,138.779743,0
1053,22,22325,田方郡函南町,Tagata-gun Kannami-cho,35.112061,138.96945,0
1054,22,22341,駿東郡清水町,Sunto-gun Shimizu-cho,35.096057,138.908426,0
1055,22,22342,駿東郡長泉町,Sunto-gun Nagaizumi-cho,35.145472,138.902719,0
1056,22,22344,駿東郡小山町,Sunto-gun Oyama-cho,35.350726,138.962001,0
1057,22,22424,榛原郡吉田町,Haibara-gun Yoshida-cho,34.793425,138.252921,0
1058,22,22429,榛原郡川根本町,Haibara-gun Kawanehon-cho,35.086945,138.120772,0
1059,22,22461,周智郡森町,Shuchi-gun Mori-machi,34.850219,137.928528,0
1060,23,23100,名古屋市,Nagoya-shi,35.1049,136.5424,2
1061,23,23101,名古屋市千種区,Nagoya-shi Chikusa-ku,35.161494,136.939084,1
1062,23,23102,名古屋市東区,Nagoya-shi Higashi-ku,35.180876,136.92189,1
1063,23,23103,名古屋市北区,Nagoya-shi Kita-ku,35.194027,136.925584,1
1064,23,23104,名古屋市西区,Nagoya-shi Nishi-ku,35.223348,136.888116,1
1065,23,23105,名古屋市中村区,Nagoya-shi Nakamura-ku,35.164506,136.841037,1
1066,23,23106,名古屋市中区,Nagoya-shi Naka-ku,35.170061,136.921741,1
1067,23,23107,名古屋市昭和区,Nagoya-shi Showa-ku,35.155586,136.92985,1
1068,23,23108,名古屋市瑞穂区,Nagoya-shi Mizuho-ku,35.112686,136.924819,1
1069,23,23109,名古屋市熱田区,Nagoya-shi Atsuta-ku,35.13589,136.889382,1
1070,23,23110,名古屋市中川区,Nagoya-shi Nakagawa-ku,35.154072,136.876174,1
1071,23,23111,名古屋市港区,Nagoya-shi Minato-ku,35.109288,136.820807,1
1072,23,23112,名古屋市南区,Nagoya-shi Minami-ku,35.095134,136.944066,1
1073,23,23113,名古屋市守山区,Nagoya-shi Moriyama-ku,35.227782,136.994092,1
1074,23,23114,名古屋市緑区,Nagoya-shi Midori-ku,35.101565,136.967846,1
1075,23,23115,名古屋市名東区,Nagoya-shi Meito-ku,35.182575,136.995211,1
1076,23,23116,名古屋市天白区,Nagoya-shi Tempaku-ku,35.102446,136.967674,1
1077,23,23201,豊橋市,Toyohashi-shi,34.760845,137.349365,0
1078,23,23202,岡崎市,Okazaki-shi,34.970876,137.157372,0
1079,23,23203,一宮市,Ichinomiya-shi,35.295331,136.816885,0
1080,23,23204,瀬戸市,Seto-shi,35.210186,137.080485,0
1081,23,23205,半田市,Handa-shi,34.878092,136.916129,0
1082,23,23206,春日井市,Kasugai-shi,35.315329,137.029871,0
1083,23,23207,豊川市,Toyokawa-shi,34.871415,137.307875,0
1084,23,23208,津島市,Tsushima-shi,35.199144,136.765329,0
1085,23,23209,碧南市,Hekinan-shi,34.905079,136.98845,0
1086,23,23210,刈谷市,Kariya-shi,34.991058,137.010967,0
1087,23,23211,豊田市,Toyota-shi,35.105581,137.138747,0
1088,23,23212,安城市,Anjo-shi,34.954872,137.086583,0
1089,23,23213,西尾市,Nishio-shi,34.806594,137.077034,0
1090,23,23214,蒲郡市,Gamagori-shi,34.825785,137.218621,0
1091,23,23215,犬山市,Inuyama-shi,35.32358,136.927492,0
1092,23,23216,常滑市,Tokoname-shi,34.895808,136.861269,0
1093,23,23217,江南市,Konan-shi,35.332544,136.869943,0
1094,23,23219,小牧市,Komaki-shi,35.293168,136.907747,0
1095,23,23220,稲沢市,Inazawa-shi,35.275078,136.81032,0
1096,23,23221,新城市,Shinshiro-shi,35.022327,137.502359,0
1097,23,23222,東海市,Tokai-shi,35.049591,136.90444,0
1098,23,23223,大府市,Obu-shi,35.005016,136.965326,0
1099,23,23224,知多市,Chita-shi,34.955687,136.875098,0
1100,23,23225,知立市,Chiryu-shi,35.017972,137.040964,0
1101,23,23226,尾張旭市,Owariasahi-shi,35.227428,137.047192,0
1102,23,23227,高浜市,Takahama-shi,34.925833,136.981389,0
1103,23,23228,岩倉市,Iwakura-shi,35.276346,136.871761,0
1104,23,23229,豊明市,Toyoake-shi,35.044668,137.012116,0
1105,23,23230,日進市,Nisshin-shi,35.121563,137.016715,0
1106,23,23231,田原市,Tahara-shi,34.658632,137.310072,0
1107,23,23232,愛西市,Aisai-shi,35.202512,136.697666,0
1108,23,23233,清須市,Kiyosu-shi,35.222217,136.849612,0
1109,23,23234,北名古屋市,Kitanagoya-shi,35.245556,136.853041,0
1110,23,23235,弥富市,Yatomi-shi,35.044212,136.758505,0
1111,23,23236,みよし市,Miyoshi-shi,35.078401,137.096648,0
1112,23,23237,あま市,Ama-shi,35.206201,136.818714,0
1113,23,23238,長久手市,Nagakute-shi,35.180227,137.079154,0
1114,23,23302,愛知郡東郷町,Aichi-gun Togo-cho,35.088972,137.052583,0
1115,23,23342,西春日井郡豊山町,Nishikasugai-gun Toyoyama-cho,35.257564,136.914862,0
1116,23,23361,丹羽郡大口町,Niwa-gun Oguchi-cho,35.321759,136.90083,0
1117,23,23362,丹羽郡扶桑町,Niwa-gun Fuso-cho,35.374251,136.902135,0
1118,23,23424,海部郡大治町,Ama-gun Oharu-cho,35.164339,136.829517,0
1119,23,23425,海部郡蟹江町,Ama-gun Kanie-cho,35.127284,136.782902,0
1120,23,23427,海部郡飛島村,Ama-gun Tobishima-mura,35.07941,136.816949,0
1121,23,23441,知多郡阿久比町,Chita-gun Agui-cho,34.934537,136.911144,0
1122,23,23442,知多郡東浦町,Chita-gun Higashiura-cho,34.95278,136.973066,0
1123,23,23445,知多郡南知多町,Chita-gun Minamichita-cho,34.74581,136.880159,0
1124,23,23446,知多郡美浜町,Chita-gun Mihama-cho,34.756158,136.907383,0
1125,23,23447,知多郡武豊町,Chita-gun Taketoyo-cho,34.855487,136.905125,0
1126,23,23501,額田郡幸田町,Nukata-gun Kota-cho,34.855106,137.174669,0
1127,23,23561,北設楽郡設楽町,Kitashitara-gun Shitara-cho,35.083637,137.587612,0
1128,23,23562,北設楽郡東栄町,Kitashitara-gun Toei-cho,35.105557,137.692447,0
1129,23,23563,北設楽郡豊根村,Kitashitara-gun Toyone-mura,35.152641,137.691099,0
1130,24,24201,津市,Tsu-shi,34.724247,136.515009,0
1131,24,24202,四日市市,Yokkaichi-shi,34.963176,136.632056,0
1132,24,24203,伊勢市,Ise-shi,34.474406,136.695607,0
1133,24,24204,松阪市,Matsusaka-shi,34.560537,136.504433,0
1134,24,24205,桑名市,Kuwana-shi,35.066637,136.692448,0
1135,24,24207,鈴鹿市,Suzuka-shi,34.816532,136.55084,0
1136,24,24208,名張市,Nabari-shi,34.59151,136.07617,0
1137,24,24209,尾鷲市,Owase-shi,34.072988,136.198945,0
1138,24,24210,亀山市,Kameyama-shi,34.869116,136.45795,0
1139,24,24211,鳥羽市,Toba-shi,34.39425,136.88994,0
1140,24,24212,熊野市,Kumano-shi,33.988403,136.108446,0
1141,24,24214,いなべ市,Inabe-shi,35.110331,136.563477,0
1142,24,24215,志摩市,Shima-shi,34.358668,136.897086,0
1143,24,24216,伊賀市,Iga-shi,34.810465,136.225268,0
1144,24,24303,桑名郡木曽岬町,Kuwana-gun Kisosaki-cho,35.081179,136.741673,0
1145,24,24324,員弁郡東員町,Inabe-gun Toin-cho,35.081892,136.603252,0
1146,24,24341,三重郡菰野町,Mie-gun Komono-cho,35.033189,136.522905,0
1147,24,24343,三重郡朝日町,Mie-gun Asahi-cho,35.035443,136.645787,0
1148,24,24344,三重郡川越町,Mie-gun Kawagoe-cho,35.028618,136.692969,0
1149,24,24441,多気郡多気町,Taki-gun Taki-cho,34.519128,136.56702,0
1150,24,24442,多気郡明和町,Taki-gun Meiwa-cho,34.513313,136.605349,0
1151,24,24443,多気郡大台町,Taki-gun Odai-cho,34.419273,136.45838,0
1152,24,24461,度会郡玉城町,Watarai-gun Tamaki-cho,34.511057,136.640644,0
1153,24,24470,度会郡度会町,Watarai-gun Watarai-cho,34.356488,136.58509,0
1154,24,24471,度会郡大紀町,Watarai-gun Taiki-cho,34.334242,136.420146,0
1155,24,24472,度会郡南伊勢町,Watarai-gun Minamiise-cho,34.260002,136.595635,0
1156,24,24543,北牟婁郡紀北町,Kitamuro-gun Kihoku-cho,34.221556,136.277104,0
1157,24,24561,南牟婁郡御浜町,Minamimuro-gun Mihama-cho,33.800662,136.037102,0
1158,24,24562,南牟婁郡紀宝町,Minamimuro-gun Kiho-cho,33.768214,135.931014,0
1159,25,25201,大津市,Otsu-shi,34.98274,135.968774,0
1160,25,25202,彦根市,Hikone-shi,35.273953,136.261864,0
1161,25,25203,長浜市,Nagahama-shi,35.376471,136.26955,0
1162,25,25204,近江八幡市,Omihachiman-shi,35.13905,136.092612,0
1163,25,25206,草津市,Kusatsu-shi,35.003221,135.973301,0
1164,25,25207,守山市,Moriyama-shi,35.07941,135.960921,0
1165,25,25208,栗東市,Ritto-shi,34.967197,136.026113,0
1166,25,25209,甲賀市,Koka-shi,34.878963,136.25822,0
1167,25,25210,野洲市,Yasu-shi,35.134833,135.999997,0
1168,25,25211,湖南市,Konan-shi,34.990005,136.119941,0
1169,25,25212,高島市,Takashima-shi,35.329925,136.034823,0
1170,25,25213,東近江市,Higashiomi-shi,35.093206,136.296782,0
1171,25,25214,米原市,Maibara-shi,35.324545,136.272739,0
1172,25,25383,蒲生郡日野町,Gamo-gun Hino-cho,35.01269,136.230462,0
1173,25,25384,蒲生郡竜王町,Gamo-gun Ryuo-cho,35.064769,136.129175,0
1174,25,25425,愛知郡愛荘町,Echi-gun Aisho-cho,35.175795,136.246629,0
1175,25,25441,犬上郡豊郷町,Inukami-gun Toyosato-cho,35.192316,136.250015,0
1176,25,25442,犬上郡甲良町,Inukami-gun Kora-cho,35.212319,136.250601,0
1177,25,25443,犬上郡多賀町,Inukami-gun Taga-cho,35.240403,136.30045,0
1178,26,26100,京都市,Kyoto-shi,35.0117,135.452,2
1179,26,26101,京都市北区,Kyoto-shi Kita-ku,35.033825,135.76835,1
1180,26,26102,京都市上京区,Kyoto-shi Kamigyo-ku,35.031139,135.769041,1
1181,26,26103,京都市左京区,Kyoto-shi Sakyo-ku,35.014829,135.774558,1
1182,26,26104,京都市中京区,Kyoto-shi Nakagyo-ku,35.016212,135.756956,1
1183,26,26105,京都市東山区,Kyoto-shi Higashiyama-ku,34.99777,135.775867,1
1184,26,26106,京都市下京区,Kyoto-shi Shimogyo-ku,35.002973,135.764009,1
1185,26,26107,京都市南区,Kyoto-shi Minami-ku,34.984746,135.7507,1
1186,26,26108,京都市右京区,Kyoto-shi Ukyo-ku,35.018385,135.70363,1
1187,26,26109,京都市伏見区,Kyoto-shi Fushimi-ku,34.941165,135.76078,1
1188,26,26110,京都市山科区,Kyoto-shi Yamashina-ku,35.002201,135.818163,1
1189,26,26111,京都市西京区,Kyoto-shi Nishikyo-ku,35.002107,135.6876,1
1190,26,26201,福知山市,Fukuchiyama-shi,35.30444,135.107428,0
1191,26,26202,舞鶴市,Maizuru-shi,35.493083,135.315918,0
1192,26,26203,綾部市,Ayabe-shi,35.300239,135.254655,0
1193,26,26204,宇治市,Uji-shi,34.89903,135.852347,0
1194,26,26205,宮津市,Miyazu-shi,35.534397,135.201603,0
1195,26,26206,亀岡市,Kameoka-shi,35.084241,135.571804,0
1196,26,26207,城陽市,Joyo-shi,34.828578,135.821105,0
1197,26,26208,向日市,Muko-shi,34.941289,135.711548,0
1198,26,26209,長岡京市,Nagaokakyo-shi,34.937151,135.676083,0
1199,26,26210,八幡市,Yawata-shi,34.854126,135.742306,0
1200,26,26211,京田辺市,Kyotanabe-shi,34.813539,135.795949,0
1201,26,26212,京丹後市,Kyotango-shi,35.685388,135.015976,0
1202,26,26213,南丹市,Nantan-shi,35.059144,135.412936,0
1203,26,26214,木津川市,Kizugawa-shi,34.723277,135.824261,0
1204,26,26303,乙訓郡大山崎町,Otokuni-gun Oyamazaki-cho,34.90365,135.690683,0
1205,26,26322,久世郡久御山町,Kuse-gun Kumiyama-cho,34.89508,135.759142,0
1206,26,26343,綴喜郡井手町,Tsuzuki-gun Ide-cho,34.800551,135.818137,0
1207,26,26344,綴喜郡宇治田原町,Tsuzuki-gun Ujitawara-cho,34.860702,135.858128,0
1208,26,26364,相楽郡笠置町,Soraku-gun Kasagi-cho,34.752679,135.96079,0
1209,26,26365,相楽郡和束町,Soraku-gun Wazuka-cho,34.784362,135.879963,0
1210,26,26366,相楽郡精華町,Soraku-gun Seika-cho,34.733534,135.766657,0
1211,26,26367,相楽郡南山城村,Soraku-gun Minamiyamashiro-mura,34.778164,136.005921,0
1212,26,26407,船井郡京丹波町,Funai-gun Kyotamba-cho,35.251573,135.37677,0
1213,26,26463,与謝郡伊根町,Yosa-gun Ine-cho,35.693536,135.277854,0
1214,26,26465,与謝郡与謝野町,Yosa-gun Yosano-cho,35.513364,135.110788,0
1215,27,27100,大阪市,Osaka-shi,34.4138,135.3808,2
1216,27,27102,大阪市都島区,Osaka-shi Miyakojima-ku,34.716232,135.536105,1
1217,27,27103,大阪市福島区,Osaka-shi Fukushima-ku,34.696053,135.4731,1
1218,27,27104,大阪市此花区,Osaka-shi Konohana-ku,34.68516,135.461233,1
1219,27,27106,大阪市西区,Osaka-shi Nishi-ku,34.680784,135.491823,1
1220,27,27107,大阪市港区,Osaka-shi Minato-ku,34.65792,135.449062,1
1221,27,27108,大阪市大正区,Osaka-shi Taisho-ku,34.651833,135.46883,1
1222,27,27109,大阪市天王寺区,Osaka-shi Tennoji-ku,34.673741,135.520751,1
1223,27,27111,大阪市浪速区,Osaka-shi Naniwa-ku,34.661331,135.510105,1
1224,27,27113,大阪市西淀川区,Osaka-shi Nishiyodogawa-ku,34.710406,135.466691,1
1225,27,27114,大阪市東淀川区,Osaka-shi Higashiyodogawa-ku,34.733444,135.511339,1
1226,27,27115,大阪市東成区,Osaka-shi Higashinari-ku,34.680418,135.55148,1
1227,27,27116,大阪市生野区,Osaka-shi Ikuno-ku,34.64777,135.525974,1
1228,27,27117,大阪市旭区,Osaka-shi Asahi-ku,34.72319,135.553015,1
1229,27,27118,大阪市城東区,Osaka-shi Joto-ku,34.698898,135.542642,1
1230,27,27119,大阪市阿倍野区,Osaka-shi Abeno-ku,34.63765,135.522732,1
1231,27,27120,大阪市住吉区,Osaka-shi Sumiyoshi-ku,34.619985,135.508079,1
1232,27,27121,大阪市東住吉区,Osaka-shi Higashisumiyoshi-ku,34.629301,135.530623,1
1233,27,27122,大阪市西成区,Osaka-shi Nishinari-ku,34.653268,135.491262,1
1234,27,27123,大阪市淀川区,Osaka-shi Yodogawa-ku,34.723323,135.485147,1
1235,27,27124,大阪市鶴見区,Osaka-shi Tsurumi-ku,34.71437,135.582075,1
1236,27,27125,大阪市住之江区,Osaka-shi Suminoe-ku,34.605352,135.487992,1
1237,27,27126,大阪市平野区,Osaka-shi Hirano-ku,34.617357,135.560387,1
1238,27,27127,大阪市北区,Osaka-shi Kita-ku,34.708582,135.505174,1
1239,27,27128,大阪市中央区,Osaka-shi Chuo-ku,34.689044,135.50739,1
1240,27,27140,堺市,Sakai-shi,34.3424,135.2859,2
1241,27,27141,堺市堺区,Sakai-shi Sakai-ku,34.561947,135.4615,1
1242,27,27142,堺市中区,Sakai-shi Naka-ku,34.514668,135.505126,1
1243,27,27143,堺市東区,Sakai-shi Higashi-ku,34.539384,135.537547,1
1244,27,27144,堺市西区,Sakai-shi Nishi-ku,34.530967,135.480805,1
1245,27,27145,堺市南区,Sakai-shi Minami-ku,34.488017,135.483429,1
1246,27,27146,堺市北区,Sakai-shi Kita-ku,34.571974,135.500414,1
1247,27,27147,堺市美原区,Sakai-shi Mihara-ku,34.553927,135.541277,1
1248,27,27202,岸和田市,Kishiwada-shi,34.46597,135.404787,0
1249,27,27203,豊中市,Toyonaka-shi,34.81025,135.448031,0
1250,27,27204,池田市,Ikeda-shi,34.826356,135.426064,0
1251,27,27205,吹田市,Suita-shi,34.769232,135.550052,0
1252,27,27206,泉大津市,Izumiotsu-shi,34.488469,135.416208,0
1253,27,27207,高槻市,Takatsuki-shi,34.87516,135.621668,0
1254,27,27208,貝塚市,Kaizuka-shi,34.441285,135.35844,0
1255,27,27209,守口市,Moriguchi-shi,34.726986,135.559967,0
1256,27,27210,枚方市,Hirakata-shi,34.833954,135.67169,0
1257,27,27211,茨木市,Ibaraki-shi,34.819084,135.57291,0
1258,27,27212,八尾市,Yao-shi,34.631139,135.638721,0
1259,27,27213,泉佐野市,Izumisano-shi,34.423728,135.334211,0
1260,27,27214,富田林市,Tondabayashi-shi,34.476926,135.575378,0
1261,27,27215,寝屋川市,Neyagawa-shi,34.773622,135.603872,0
1262,27,27216,河内長野市,Kawachinagano-shi,34.460683,135.574133,0
1263,27,27217,松原市,Matsubara-shi,34.586363,135.530677,0
1264,27,27218,大東市,Daito-shi,34.706958,135.624851,0
1265,27,27219,和泉市,Izumi-shi,34.50429,135.444826,0
1266,27,27220,箕面市,Mino-shi,34.840986,135.479256,0
1267,27,27221,柏原市,Kashiwara-shi,34.590324,135.619091,0
1268,27,27222,羽曳野市,Habikino-shi,34.555917,135.581148,0
1269,27,27223,門真市,Kadoma-shi,34.72276,135.588031,0
1270,27,27224,摂津市,Settsu-shi,34.755747,135.5542,0
1271,27,27225,高石市,Takaishi-shi,34.529257,135.432595,0
1272,27,27226,藤井寺市,Fujiidera-shi,34.580197,135.596806,0
1273,27,27227,東大阪市,Higashiosaka-shi,34.671693,135.576378,0
1274,27,27228,泉南市,Sennan-shi,34.373508,135.275194,0
1275,27,27229,四條畷市,Shijonawate-shi,34.73411,135.63104,0
1276,27,27230,交野市,Katano-shi,34.76458,135.678169,0
1277,27,27231,大阪狭山市,Osakasayama-shi,34.498523,135.551463,0
1278,27,27232,阪南市,Hannan-shi,34.33191,135.191324,0
1279,27,27301,三島郡島本町,Mishima-gun Shimamoto-cho,34.890252,135.673914,0
1280,27,27321,豊能郡豊能町,Toyono-gun Toyono-cho,34.902589,135.441199,0
1281,27,27322,豊能郡能勢町,Toyono-gun Nose-cho,34.969662,135.389333,0
1282,27,27341,泉北郡忠岡町,Semboku-gun Tadaoka-cho,34.48076,135.405945,0
1283,27,27361,泉南郡熊取町,Sennan-gun Kumatori-cho,34.37984,135.362671,0
1284,27,27362,泉南郡田尻町,Sennan-gun Tajiri-cho,34.396048,135.283838,0
1285,27,27366,泉南郡岬町,Sennan-gun Misaki-cho,34.330811,135.187278,0
1286,27,27381,南河内郡太子町,Minamikawachi-gun Taishi-cho,34.522092,135.638259,0
1287,27,27382,南河内郡河南町,Minamikawachi-gun Kanan-cho,34.484205,135.641397,0
1288,27,27383,南河内郡千早赤阪村,Minamikawachi-gun Chihayaakasaka Mu,34.447272,135.615964,0
1289,28,28100,神戸市,Kobe-shi,34.4129,135.1049,2
1290,28,28101,神戸市東灘区,Kobe-shi Higashinada-ku,34.721931,135.247407,1
1291,28,28102,神戸市灘区,Kobe-shi Nada-ku,34.753965,135.22812,1
1292,28,28105,神戸市兵庫区,Kobe-shi Hyogo-ku,34.669815,135.176854,1
1293,28,28106,神戸市長田区,Kobe-shi Nagata-ku,34.670509,135.157719,1
1294,28,28107,神戸市須磨区,Kobe-shi Suma-ku,34.678697,135.116586,1
1295,28,28108,神戸市垂水区,Kobe-shi Tarumi-ku,34.673367,135.061312,1
1296,28,28109,神戸市北区,Kobe-shi Kita-ku,34.743738,135.173906,1
1297,28,28110,神戸市中央区,Kobe-shi Chuo-ku,34.665691,135.228664,1
1298,28,28111,神戸市西区,Kobe-shi Nishi-ku,34.695208,135.01338,1
1299,28,28201,姫路市,Himeji-shi,34.895323,134.667794,0
1300,28,28202,尼崎市,Amagasaki-shi,34.691088,135.374908,0
1301,28,28203,明石市,Akashi-shi,34.694274,134.935177,0
1302,28,28204,西宮市,Nishinomiya-shi,34.808882,135.259225,0
1303,28,28205,洲本市,Sumoto-shi,34.251316,134.870581,0
1304,28,28206,芦屋市,Ashiya-shi,34.75336,135.309902,0
1305,28,28207,伊丹市,Itami-shi,34.789644,135.373459,0
1306,28,28208,相生市,Aioi-shi,34.784897,134.489602,0
1307,28,28209,豊岡市,Toyoka-shi,35.426446,135.003268,0
1308,28,28210,加古川市,Kakogawa-shi,34.760633,134.854839,0
1309,28,28212,赤穂市,Ako-shi,34.74699,134.373583,0
1310,28,28213,西脇市,Nishiwaki-shi,35.014006,135.021937,0
1311,28,28214,宝塚市,Takarazuka-shi,34.819586,135.355173,0
1312,28,28215,三木市,Miki-shi,34.805688,134.979768,0
1313,28,28216,高砂市,Takasago-shi,34.750163,134.802114,0
1314,28,28217,川西市,Kawanishi-shi,34.839347,135.421682,0
1315,28,28218,小野市,Ono-shi,34.83454,134.979129,0
1316,28,28219,三田市,Sanda-shi,34.893716,135.270444,0
1317,28,28220,加西市,Kasai-shi,34.922458,134.870363,0
1318,28,28221,丹波篠山市,Tambasasayama-shi,35.004942,135.122063,0
1319,28,28222,養父市,Yabu-shi,35.333523,134.734854,0
1320,28,28223,丹波市,Tamba-shi,35.066144,135.105147,0
1321,28,28224,南あわじ市,Minamiawaji-shi,34.167974,134.825176,0
1322,28,28225,朝来市,Asago-shi,35.340273,134.848992,0
1323,28,28226,淡路市,Awaji-shi,34.474241,134.923444,0
1324,28,28227,宍粟市,Shiso-shi,35.006191,134.513515,0
1325,28,28228,加東市,Kato-shi,34.916292,134.990823,0
1326,28,28229,たつの市,Tatsuno-shi,34.770872,134.484696,0
1327,28,28301,川辺郡猪名川町,Kawabe-gun Inagawa-cho,34.916675,135.375762,0
1328,28,28365,多可郡多可町,Taka-gun Taka-cho,35.013995,134.863021,0
1329,28,28381,加古郡稲美町,Kako-gun Inami-cho,34.752444,134.910826,0
1330,28,28382,加古郡播磨町,Kako-gun Harima-cho,34.723371,134.870664,0
1331,28,28442,神崎郡市川町,Kanzaki-gun Ichikawa-cho,35.018306,134.726586,0
1332,28,28443,神崎郡福崎町,Kanzaki-gun Fukusaki-cho,34.929729,134.781122,0
1333,28,28446,神崎郡神河町,Kanzaki-gun Kamikawa-cho,35.089036,134.742594,0
1334,28,28464,揖保郡太子町,Ibo-gun Taishi-cho,34.835323,134.623592,0
1335,28,28481,赤穂郡上郡町,Ako-gun Kamigori-cho,34.920223,134.372976,0
1336,28,28501,佐用郡佐用町,Sayo-gun Sayo-cho,35.003541,134.362894,0
1337,28,28585,美方郡香美町,Mikata-gun Kami-cho,35.419444,134.632937,0
1338,28,28586,美方郡新温泉町,Mikata-gun Shinonsen-cho,35.50128,134.488069,0
1339,29,29201,奈良市,Nara-shi,34.671769,135.759327,0
1340,29,29202,大和高田市,Yamatotakada-shi,34.512724,135.756239,0
1341,29,29203,大和郡山市,Yamatokoriyama-shi,34.646541,135.779468,0
1342,29,29204,天理市,Tenri-shi,34.585892,135.810945,0
1343,29,29205,橿原市,Kashihara-shi,34.48314,135.799944,0
1344,29,29206,桜井市,Sakurai-shi,34.513755,135.869791,0
1345,29,29207,五條市,Gojo-shi,34.33191,135.665295,0
1346,29,29208,御所市,Gose-shi,34.414389,135.711142,0
1347,29,29209,生駒市,Ikoma-shi,34.667971,135.700915,0
1348,29,29210,香芝市,Kashiba-shi,34.553926,135.69675,0
1349,29,29211,葛城市,Katsuragi-shi,34.521843,135.70433,0
1350,29,29212,宇陀市,Uda-shi,34.461962,135.969532,0
1351,29,29322,山辺郡山添村,Yamabe-gun Yamazoe-mura,34.636602,136.060356,0
1352,29,29342,生駒郡平群町,Ikoma-gun Heguri-cho,34.645954,135.681028,0
1353,29,29343,生駒郡三郷町,Ikoma-gun Sango-cho,34.609012,135.678134,0
1354,29,29344,生駒郡斑鳩町,Ikoma-gun Ikaruga-cho,34.60755,135.744057,0
1355,29,29345,生駒郡安堵町,Ikoma-gun Ando-cho,34.60571,135.766298,0
1356,29,29361,磯城郡川西町,Shiki-gun Kawanishi-cho,34.58514,135.767963,0
1357,29,29362,磯城郡三宅町,Shiki-gun Miyake-cho,34.571394,135.78734,0
1358,29,29363,磯城郡田原本町,Shiki-gun Tawaramoto-cho,34.538034,135.810728,0
1359,29,29385,宇陀郡曽爾村,Uda-gun Soni-mura,34.543335,136.144305,0
1360,29,29386,宇陀郡御杖村,Uda-gun Mitsue-mura,34.488996,136.205976,0
1361,29,29401,高市郡高取町,Takaichi-gun Takatori-cho,34.438686,135.772117,0
1362,29,29402,高市郡明日香村,Takaichi-gun Asuka-mura,34.479741,135.823245,0
1363,29,29424,北葛城郡上牧町,Kitakatsuragi-gun Kammaki-cho,34.559949,135.720024,0
1364,29,29425,北葛城郡王寺町,Kitakatsuragi-gun Oji-cho,34.594445,135.708455,0
1365,29,29426,北葛城郡広陵町,Kitakatsuragi-gun Koryo-cho,34.553246,135.733443,0
1366,29,29427,北葛城郡河合町,Kitakatsuragi-gun Kawai-cho,34.579559,135.737293,0
1367,29,29441,吉野郡吉野町,Yoshino-gun Yoshino-cho,34.395892,135.937567,0
1368,29,29442,吉野郡大淀町,Yoshino-gun Oyodo-cho,34.413958,135.797479,0
1369,29,29443,吉野郡下市町,Yoshino-gun Shimoichi-cho,34.374129,135.779702,0
1370,29,29444,吉野郡黒滝村,Yoshino-gun Kurotaki-mura,34.303982,135.895109,0
1371,29,29446,吉野郡天川村,Yoshino-gun Tenkawa-mura,34.18744,135.802425,0
1372,29,29447,吉野郡野迫川村,Yoshino-gun Nosegawa-mura,34.176195,135.669292,0
1373,29,29449,吉野郡十津川村,Yoshino-gun Totsukawa-mura,34.122935,135.846171,0
1374,29,29450,吉野郡下北山村,Yoshino-gun Shimokitayama-mura,34.029912,135.93971,0
1375,29,29451,吉野郡上北山村,Yoshino-gun Kamikitayama-mura,34.059192,136.0666,0
1376,29,29452,吉野郡川上村,Yoshino-gun Kawakami-mura,34.333613,136.0128,0
1377,29,29453,吉野郡東吉野村,Yoshino-gun Higashiyoshino-mura,34.410996,136.024952,0
1378,30,30201,和歌山市,Wakayama-shi,34.21348,135.163085,0
1379,30,30202,海南市,Kainan-shi,34.124785,135.282056,0
1380,30,30203,橋本市,Hashimoto-shi,34.311242,135.650479,0
1381,30,30204,有田市,Arida-shi,34.064964,135.180677,0
1382,30,30205,御坊市,Gobo-shi,33.917789,135.149678,0
1383,30,30206,田辺市,Tanabe-shi,33.809853,135.42827,0
1384,30,30207,新宮市,Shingu-shi,33.732571,135.982393,0
1385,30,30208,紀の川市,Kinokawa-shi,34.272057,135.377907,0
1386,30,30209,岩出市,Iwade-shi,34.283355,135.285773,0
1387,30,30304,海草郡紀美野町,Kaiso-gun Kimino-cho,34.131636,135.38692,0
1388,30,30341,伊都郡かつらぎ町,Ito-gun Katsuragi-cho,34.285106,135.506936,0
1389,30,30343,伊都郡九度山町,Ito-gun Kudoyama-cho,34.273518,135.619325,0
1390,30,30344,伊都郡高野町,Ito-gun Koya-cho,34.173824,135.584875,0
1391,30,30361,有田郡湯浅町,Arida-gun Yuasa-cho,34.031859,135.189671,0
1392,30,30362,有田郡広川町,Arida-gun Hirogawa-cho,34.005935,135.195307,0
1393,30,30366,有田郡有田川町,Arida-gun Aridagawa-cho,34.043888,135.350324,0
1394,30,30381,日高郡美浜町,Hidaka-gun Mihama-cho,33.892798,135.147928,0
1395,30,30382,日高郡日高町,Hidaka-gun Hidaka-cho,33.89312,135.068349,0
1396,30,30383,日高郡由良町,Hidaka-gun Yura-cho,33.96094,135.114544,0
1397,30,30390,日高郡印南町,Hidaka-gun Inami-cho,33.821209,135.214708,0
1398,30,30391,日高郡みなべ町,Hidaka-gun Minabe-cho,33.870837,135.35537,0
1399,30,30392,日高郡日高川町,Hidaka-gun Hidakagawa-cho,33.96417,135.364693,0
1400,30,30401,西牟婁郡白浜町,Nishimuro-gun Shirahama-cho,33.609899,135.480537,0
1401,30,30404,西牟婁郡上富田町,Nishimuro-gun Kamitonda-cho,33.70548,135.416027,0
1402,30,30406,西牟婁郡すさみ町,Nishimuro-gun Susami-cho,33.520921,135.601552,0
1403,30,30421,東牟婁郡那智勝浦町,Higashimuro-gun Nachikatsura-cho,33.628251,135.938009,0
1404,30,30422,東牟婁郡太地町,Higashimuro-gun Taiji-cho,33.591113,135.95784,0
1405,30,30424,東牟婁郡古座川町,Higashimuro-gun Kozagawa-cho,33.553284,135.72606,0
1406,30,30427,東牟婁郡北山村,Higashimuro-gun Kitayama-mura,33.939146,135.96645,0
1407,30,30428,東牟婁郡串本町,Higashimuro-gun Kushimoto-cho,33.484268,135.730408,0
1408,31,31201,鳥取市,Tottori-shi,35.508259,134.228615,0
1409,31,31202,米子市,Yonago-shi,35.3954,133.364157,0
1410,31,31203,倉吉市,Kurayoshi-shi,35.42647,133.826956,0
1411,31,31204,境港市,Sakaiminato-shi,35.546713,133.233527,0
1412,31,31302,岩美郡岩美町,Iwami-gun Iwami-cho,35.574484,134.351301,0
1413,31,31325,八頭郡若桜町,Yazu-gun Wakasa-cho,35.360758,134.407564,0
1414,31,31328,八頭郡智頭町,Yazu-gun Chizu-cho,35.278365,134.347762,0
1415,31,31329,八頭郡八頭町,Yazu-gun Yazu-cho,35.416527,134.395295,0
1416,31,31364,東伯郡三朝町,Tohaku-gun Misasa-cho,35.37301,133.856219,0
1417,31,31370,東伯郡湯梨浜町,Tohaku-gun Yurihama-cho,35.496616,133.877086,0
1418,31,31371,東伯郡琴浦町,Tohaku-gun Kotora-cho,35.511335,133.642221,0
1419,31,31372,東伯郡北栄町,Tohaku-gun Hokuei-cho,35.461787,133.729449,0
1420,31,31384,西伯郡日吉津村,Saihaku-gun Hiezu-son,35.453222,133.383271,0
1421,31,31386,西伯郡大山町,Saihaku-gun Daisen-cho,35.513983,133.580268,0
1422,31,31389,西伯郡南部町,Saihaku-gun Nambu-cho,35.355762,133.337396,0
1423,31,31390,西伯郡伯耆町,Saihaku-gun Hoki-cho,35.36394,133.485436,0
1424,31,31401,日野郡日南町,Hino-gun Nichinan-cho,35.200062,133.193516,0
1425,31,31402,日野郡日野町,Hino-gun Hino-cho,35.187968,133.449651,0
1426,31,31403,日野郡江府町,Hino-gun Kofu-cho,35.280534,133.499263,0
1427,32,32201,松江市,Matsue-shi,35.496685,132.95312,0
1428,32,32202,浜田市,Hamada-shi,34.890513,132.096524,0
1429,32,32203,出雲市,Izumo-shi,35.326217,132.777218,0
1430,32,32204,益田市,Masuda-shi,34.719865,131.888288,0
1431,32,32205,大田市,Oda-shi,35.247624,132.559911,0
1432,32,32206,安来市,Yasugi-shi,35.438466,133.219908,0
1433,32,32207,江津市,Gotsu-shi,35.032003,132.260821,0
1434,32,32209,雲南市,Unnan-shi,35.179111,132.7629,0
1435,32,32343,仁多郡奥出雲町,Nita-gun Okuizumo-cho,35.163889,133.10199,0
1436,32,32386,飯石郡飯南町,Iishi-gun Iinan-cho,34.99698,132.716264,0
1437,32,32441,邑智郡川本町,Ochi-gun Kawamoto-machi,34.958211,132.479044,0
1438,32,32448,邑智郡美郷町,Ochi-gun Misato-cho,35.047396,132.586775,0
1439,32,32449,邑智郡邑南町,Ochi-gun Onan-cho,34.87352,132.628898,0
1440,32,32501,鹿足郡津和野町,Kanoashi-gun Tsuwano-cho,34.576783,131.790262,0
1441,32,32505,鹿足郡吉賀町,Kanoashi-gun Yoshika-cho,34.375563,131.894218,0
1442,32,32525,隠岐郡海士町,Oki-gun Ama-cho,36.096967,133.109112,0
1443,32,32526,隠岐郡西ノ島町,Oki-gun Nishinoshima-cho,36.127093,133.070774,0
1444,32,32527,隠岐郡知夫村,Oki-gun Chibu-mura,36.026349,133.014216,0
1445,32,32528,隠岐郡隠岐の島町,Oki-gun Okinoshima-cho,36.235391,133.320986,0
1446,33,33100,岡山市,Okayama-shi,34.3942,133.5606,2
1447,33,33101,岡山市北区,Okayama-shi Kita-ku,34.669495,133.89937,1
1448,33,33102,岡山市中区,Okayama-shi Naka-ku,34.649358,133.938305,1
1449,33,33103,岡山市東区,Okayama-shi Higashi-ku,34.706735,134.071045,1
1450,33,33104,岡山市南区,Okayama-shi Minami-ku,34.628197,133.922068,1
1451,33,33202,倉敷市,Kurashiki-shi,34.613175,133.757815,0
1452,33,33203,津山市,Tsuyama-shi,35.262959,134.119141,0
1453,33,33204,玉野市,Tamano-shi,34.50169,134.014646,0
1454,33,33205,笠岡市,Kasaoka-shi,34.519698,133.498673,0
1455,33,33207,井原市,Ibara-shi,34.632427,133.471816,0
1456,33,33208,総社市,Soja-shi,34.68364,133.796478,0
1457,33,33209,高梁市,Takahashi-shi,34.792855,133.61845,0
1458,33,33210,新見市,Niimi-shi,35.048881,133.400714,0
1459,33,33211,備前市,Bizen-shi,34.752583,134.238499,0
1460,33,33212,瀬戸内市,Setochi-shi,34.628302,134.159125,0
1461,33,33213,赤磐市,Akaiwa-shi,34.853143,133.99919,0
1462,33,33214,真庭市,Maniwa-shi,35.026326,133.769477,0
1463,33,33215,美作市,Mimasaka-shi,34.945971,134.120813,0
1464,33,33216,浅口市,Asakuchi-shi,34.538802,133.588634,0
1465,33,33346,和気郡和気町,Wake-gun Wake-cho,34.815418,134.160776,0
1466,33,33423,都窪郡早島町,Tsukubo-gun Hayashima-cho,34.608687,133.818498,0
1467,33,33445,浅口郡里庄町,Asakuchi-gun Satosho-cho,34.523398,133.56142,0
1468,33,33461,小田郡矢掛町,Oda-gun Yakage-cho,34.598761,133.563184,0
1469,33,33586,真庭郡新庄村,Maniwa-gun Shinjo-son,35.177164,133.569363,0
1470,33,33606,苫田郡鏡野町,Tomata-gun Kagamino-cho,35.185966,133.911773,0
1471,33,33622,勝田郡勝央町,Katsuta-gun Shoo-cho,35.082692,134.149708,0
1472,33,33623,勝田郡奈義町,Katsuta-gun Nagi-cho,35.110161,134.165637,0
1473,33,33643,英田郡西粟倉村,Aida-gun Nishiawakura-son,35.151143,134.32365,0
1474,33,33663,久米郡久米南町,Kume-gun Kumenan-cho,34.909021,133.930669,0
1475,33,33666,久米郡美咲町,Kume-gun Misaki-cho,34.990715,133.867487,0
1476,33,33681,加賀郡吉備中央町,Kaga-gun Kibichuo-cho,34.92778,133.76021,0
1477,34,34100,広島市,Hiroshima-shi,34.2347,132.2734,2
1478,34,34101,広島市中区,Hiroshima-shi Naka-ku,34.396743,132.444904,1
1479,34,34102,広島市東区,Hiroshima-shi Higashi-ku,34.396257,132.487153,1
1480,34,34103,広島市南区,Hiroshima-shi Minami-ku,34.372525,132.506174,1
1481,34,34104,広島市西区,Hiroshima-shi Nishi-ku,34.375638,132.389317,1
1482,34,34105,広島市安佐南区,Hiroshima-shi Asaminami-ku,34.470808,132.456472,1
1483,34,34106,広島市安佐北区,Hiroshima-shi Asakita-ku,34.556528,132.440467,1
1484,34,34107,広島市安芸区,Hiroshima-shi Aki-ku,34.38342,132.621187,1
1485,34,34108,広島市佐伯区,Hiroshima-shi Saeki-ku,34.364137,132.367932,1
1486,34,34202,呉市,Kure-shi,34.238082,132.565904,0
1487,34,34203,竹原市,Takehara-shi,34.365902,132.928533,0
1488,34,34204,三原市,Mihara-shi,34.380439,133.040829,0
1489,34,34205,尾道市,Onomichi-shi,34.345926,133.167003,0
1490,34,34207,福山市,Fukuyama-shi,34.513455,133.428088,0
1491,34,34208,府中市,Fuchu-shi,34.61866,133.179216,0
1492,34,34209,三次市,Miyoshi-shi,34.754748,132.82285,0
1493,34,34210,庄原市,Shobara-shi,34.838688,133.016478,0
1494,34,34211,大竹市,Otake-shi,34.192656,132.305406,0
1495,34,34212,東広島市,Higashihiroshima-shi,34.322132,132.765619,0
1496,34,34213,廿日市市,Hatsukaichi-shi,34.338533,132.133677,0
1497,34,34214,安芸高田市,Akitakata-shi,34.712147,132.722066,0
1498,34,34215,江田島市,Etajima-shi,34.267325,132.475607,0
1499,34,34302,安芸郡府中町,Aki-gun Fuchu-cho,34.376702,132.508131,0
1500,34,34304,安芸郡海田町,Aki-gun Kaita-cho,34.367164,132.539873,0
1501,34,34307,安芸郡熊野町,Aki-gun Kumano-cho,34.324961,132.567412,0
1502,34,34309,安芸郡坂町,Aki-gun Saka-cho,34.329055,132.504683,0
1503,34,34368,山県郡安芸太田町,Yamagata-gun Akiota-cho,34.580925,132.225123,0
1504,34,34369,山県郡北広島町,Yamagata-gun Kitahiroshima-cho,34.632963,132.461534,0
1505,34,34431,豊田郡大崎上島町,Toyota-gun Osakikamijima-cho,34.215049,132.865658,0
1506,34,34462,世羅郡世羅町,Sera-gun Sera-cho,34.642261,133.082553,0
1507,34,34545,神石郡神石高原町,Jinseki-gun Jinsekikogen-cho,34.841032,133.187456,0
1508,35,35201,下関市,Shimonoseki-shi,34.059673,131.011382,0
1509,35,35202,宇部市,Ube-shi,33.953657,131.245356,0
1510,35,35203,山口市,Yamaguchi-shi,34.02895,131.440473,0
1511,35,35204,萩市,Hagi-shi,34.507569,131.281863,0
1512,35,35206,防府市,Hofu-shi,34.044443,131.550385,0
1513,35,35207,下松市,Kudamatsu-shi,34.004935,131.871849,0
1514,35,35208,岩国市,Iwakuni-shi,34.130808,132.064813,0
1515,35,35210,光市,Hikari-shi,33.971764,131.929261,0
1516,35,35211,長門市,Nagato-shi,34.427687,131.244094,0
1517,35,35212,柳井市,Yanai-shi,33.955286,132.102583,0
1518,35,35213,美祢市,Mine-shi,34.163115,131.240837,0
1519,35,35215,周南市,Shunan-shi,34.05896,131.799768,0
1520,35,35216,山陽小野田市,Sanyoonoda-shi,34.010333,131.161886,0
1521,35,35305,大島郡周防大島町,Oshima-gun Suooshima-cho,33.882142,132.253473,0
1522,35,35321,玖珂郡和木町,Kuga-gun Waki-cho,34.191974,132.215624,0
1523,35,35341,熊毛郡上関町,Kumage-gun Kaminoseki-cho,33.783669,131.976838,0
1524,35,35343,熊毛郡田布施町,Kumage-gun Tabuse-cho,33.89392,132.048805,0
1525,35,35344,熊毛郡平生町,Kumage-gun Hirao-cho,33.948989,132.092779,0
1526,35,35502,阿武郡阿武町,Abu-gun Abu-cho,34.558442,131.550912,0
1527,36,36201,徳島市,Tokushima-shi,34.073407,134.548083,0
1528,36,36202,鳴門市,Naruto-shi,34.161483,134.527846,0
1529,36,36203,小松島市,Komatsushima-shi,33.989727,134.642411,0
1530,36,36204,阿南市,Anan-shi,33.86792,134.559551,0
1531,36,36205,吉野川市,Yoshinogawa-shi,34.072038,134.331353,0
1532,36,36206,阿波市,Awa-shi,34.087666,134.197851,0
1533,36,36207,美馬市,Mima-shi,34.039306,134.180629,0
1534,36,36208,三好市,Miyoshi-shi,33.995865,133.865767,0
1535,36,36301,勝浦郡勝浦町,Katsura-gun Katsura-cho,33.922271,134.519306,0
1536,36,36302,勝浦郡上勝町,Katsura-gun Kamikatsu-cho,33.872923,134.364223,0
1537,36,36321,名東郡佐那河内村,Myodo-gun Sanagochi-son,33.975981,134.430267,0
1538,36,36341,名西郡石井町,Myozai-gun Ishii-cho,34.099208,134.438628,0
1539,36,36342,名西郡神山町,Myozai-gun Kamiyama-cho,34.019749,134.382226,0
1540,36,36368,那賀郡那賀町,Naka-gun Naka-cho,33.84588,134.473371,0
1541,36,36383,海部郡牟岐町,Kaifu-gun Mugi-cho,33.66781,134.382554,0
1542,36,36387,海部郡美波町,Kaifu-gun Minami-cho,33.76781,134.481044,0
1543,36,36388,海部郡海陽町,Kaifu-gun Kaiyo-cho,33.644928,134.256324,0
1544,36,36401,板野郡松茂町,Itano-gun Matsushige-cho,34.131863,134.58406,0
1545,36,36402,板野郡北島町,Itano-gun Kitajima-cho,34.123502,134.555672,0
1546,36,36403,板野郡藍住町,Itano-gun Aizumi-cho,34.123194,134.489616,0
1547,36,36404,板野郡板野町,Itano-gun Itano-cho,34.150647,134.44979,0
1548,36,36405,板野郡上板町,Itano-gun Kamiita-cho,34.148493,134.384029,0
1549,36,36468,美馬郡つるぎ町,Mima-gun Tsurugi-cho,33.923684,134.043694,0
1550,36,36489,三好郡東みよし町,Miyoshi-gun Higashimiyoshi-cho,34.060503,133.909257,0
1551,37,37201,高松市,Takamatsu-shi,34.349399,134.025012,0
1552,37,37202,丸亀市,Marugame-shi,34.215648,133.870164,0
1553,37,37203,坂出市,Sakaide-shi,34.307609,133.85252,0
1554,37,37204,善通寺市,Zentsuji-shi,34.219909,133.790498,0
1555,37,37205,観音寺市,Kanonji-shi,34.13187,133.642966,0
1556,37,37206,さぬき市,Sanuki-shi,34.239052,134.259397,0
1557,37,37207,東かがわ市,Higashikagawa-shi,34.236596,134.37952,0
1558,37,37208,三豊市,Mitoyo-shi,34.113704,133.795876,0
1559,37,37322,小豆郡土庄町,Shozu-gun Tonosho-cho,34.505828,134.172253,0
1560,37,37324,小豆郡小豆島町,Shozu-gun Shodoshima-cho,34.522354,134.345634,0
1561,37,37341,木田郡三木町,Kita-gun Miki-cho,34.223289,134.121371,0
1562,37,37364,香川郡直島町,Kagawa-gun Naoshima-cho,34.486788,133.964032,0
1563,37,37386,綾歌郡宇多津町,Ayauta-gun Utazu-cho,34.291983,133.834634,0
1564,37,37387,綾歌郡綾川町,Ayauta-gun Ayagawa-cho,34.218657,133.937632,0
1565,37,37403,仲多度郡琴平町,Nakatado-gun Kotohira-cho,34.194632,133.824902,0
1566,37,37404,仲多度郡多度津町,Nakatado-gun Tadotsu-cho,34.258192,133.74785,0
1567,37,37406,仲多度郡まんのう町,Nakatado-gun Manno-cho,34.162006,133.835161,0
1568,38,38201,松山市,Matsuyama-shi,33.846316,132.749193,0
1569,38,38202,今治市,Imabari-shi,34.067445,132.966444,0
1570,38,38203,宇和島市,Uwajima-shi,33.223042,132.560646,0
1571,38,38204,八幡浜市,Yawatahama-shi,33.398859,132.397361,0
1572,38,38205,新居浜市,Niihama-shi,33.958125,133.3575,0
1573,38,38206,西条市,Saijo-shi,33.927534,133.069778,0
1574,38,38207,大洲市,Ozu-shi,33.512059,132.532018,0
1575,38,38210,伊予市,Iyo-shi,33.738342,132.697864,0
1576,38,38213,四国中央市,Shikokuchuo-shi,33.977056,133.595496,0
1577,38,38214,西予市,Seiyo-shi,33.322711,132.461707,0
1578,38,38215,東温市,Toon-shi,33.748647,132.933395,0
1579,38,38356,越智郡上島町,Ochi-gun Kamijima-cho,34.270477,133.178516,0
1580,38,38386,上浮穴郡久万高原町,Kamiukena-gun Kumakogen-cho,33.691462,133.08025,0
1581,38,38401,伊予郡松前町,Iyo-gun Masaki-cho,33.793632,132.7284,0
1582,38,38402,伊予郡砥部町,Iyo-gun Tobe-cho,33.770781,132.778757,0
1583,38,38422,喜多郡内子町,Kita-gun Uchiko-cho,33.529722,132.643893,0
1584,38,38442,西宇和郡伊方町,Nishiuwa-gun Ikata-cho,33.468771,132.268924,0
1585,38,38484,北宇和郡松野町,Kitauwa-gun Matsuno-cho,33.249501,132.767689,0
1586,38,38488,北宇和郡鬼北町,Kitauwa-gun Kihoku-cho,33.308399,132.674258,0
1587,38,38506,南宇和郡愛南町,Minamiuwa-gun Ainan-cho,32.958715,132.526213,0
1588,39,39201,高知市,Kochi-shi,33.564618,133.545765,0
1589,39,39202,室戸市,Muroto-shi,33.297117,134.145466,0
1590,39,39203,安芸市,Aki-shi,33.521629,133.829528,0
1591,39,39204,南国市,Nankoku-shi,33.646471,133.584088,0
1592,39,39205,土佐市,Tosa-shi,33.457011,133.375914,0
1593,39,39206,須崎市,Susaki-shi,33.427923,133.293078,0
1594,39,39208,宿毛市,Sukumo-shi,32.923335,132.687175,0
1595,39,39209,土佐清水市,Tosashimizu-shi,32.781344,132.960542,0
1596,39,39210,四万十市,Shimanto-shi,33.020163,132.931886,0
1597,39,39211,香南市,Konan-shi,33.544494,133.724609,0
1598,39,39212,香美市,Kami-shi,33.678992,133.75557,0
1599,39,39301,安芸郡東洋町,Aki-gun Toyo-cho,33.531673,134.27589,0
1600,39,39302,安芸郡奈半利町,Aki-gun Nahari-cho,33.42695,134.040277,0
1601,39,39303,安芸郡田野町,Aki-gun Tano-cho,33.427408,133.997723,0
1602,39,39304,安芸郡安田町,Aki-gun Yasuda-cho,33.525833,134.014808,0
1603,39,39305,安芸郡北川村,Aki-gun Kitagawa-mura,33.510666,134.186544,0
1604,39,39306,安芸郡馬路村,Aki-gun Umaji-mura,33.58627,134.052818,0
1605,39,39307,安芸郡芸西村,Aki-gun Geisei-mura,33.544525,133.815667,0
1606,39,39341,長岡郡本山町,Nagaoka-gun Motoyama-cho,33.754753,133.602776,0
1607,39,39344,長岡郡大豊町,Nagaoka-gun Otoyo-cho,33.79302,133.76729,0
1608,39,39363,土佐郡土佐町,Tosa-gun Tosa-cho,33.720884,133.520172,0
1609,39,39364,土佐郡大川村,Tosa-gun Okawa-mura,33.816482,133.47142,0
1610,39,39386,吾川郡いの町,Agawa-gun Ino-cho,33.549842,133.424796,0
1611,39,39387,吾川郡仁淀川町,Agawa-gun Niyodogawa-cho,33.569927,133.156807,0
1612,39,39401,高岡郡中土佐町,Takaoka-gun Nakatosa-cho,33.357493,133.14219,0
1613,39,39402,高岡郡佐川町,Takaoka-gun Sakawa-cho,33.539845,133.27296,0
1614,39,39403,高岡郡越知町,Takaoka-gun Ochi-cho,33.565255,133.248594,0
1615,39,39405,高岡郡檮原町,Takaoka-gun Yusuhara-cho,33.382026,132.92719,0
1616,39,39410,高岡郡日高村,Takaoka-gun Hidaka-mura,33.530296,133.337971,0
1617,39,39411,高岡郡津野町,Takaoka-gun Tsuno-cho,33.458037,133.182465,0
1618,39,39412,高岡郡四万十町,Takaoka-gun Shimanto-cho,33.220902,133.046774,0
1619,39,39424,幡多郡大月町,Hata-gun Otsuki-cho,32.785132,132.73654,0
1620,39,39427,幡多郡三原村,Hata-gun Mihara-mura,32.92811,132.89422,0
1621,39,39428,幡多郡黒潮町,Hata-gun Kuroshio-cho,33.071462,133.077348,0
1622,40,40100,北九州市,Kitakyushu-shi,33.3623,130.2505,2
1623,40,40101,北九州市門司区,Kitakyushu-shi Moji-ku,33.885076,130.92079,1
1624,40,40103,北九州市若松区,Kitakyushu-shi Wakamatsu-ku,33.902525,130.687721,1
1625,40,40105,北九州市戸畑区,Kitakyushu-shi Tobata-ku,33.8977,130.824288,1
1626,40,40106,北九州市小倉北区,Kitakyushu-shi Kokurakita-ku,33.887916,130.867263,1
1627,40,40107,北九州市小倉南区,Kitakyushu-shi Kokuraminami-ku,33.850402,130.907,1
1628,40,40108,北九州市八幡東区,Kitakyushu-shi Yahatahigashi-ku,33.885553,130.816603,1
1629,40,40109,北九州市八幡西区,Kitakyushu-shi Yahatanishi-ku,33.84933,130.749586,1
1630,40,40130,福岡市,Fukuoka-shi,33.3623,130.2505,2
1631,40,40131,福岡市東区,Fukuoka-shi Higashi-ku,33.63918,130.462263,1
1632,40,40132,福岡市博多区,Fukuoka-shi Hakata-ku,33.544607,130.456278,1
1633,40,40133,福岡市中央区,Fukuoka-shi Chuo-ku,33.587481,130.390215,1
1634,40,40134,福岡市南区,Fukuoka-shi Minami-ku,33.555004,130.441148,1
1635,40,40135,福岡市西区,Fukuoka-shi Nishi-ku,33.582288,130.334183,1
1636,40,40136,福岡市城南区,Fukuoka-shi Jonan-ku,33.571993,130.358195,1
1637,40,40137,福岡市早良区,Fukuoka-shi Sawara-ku,33.577125,130.361082,1
1638,40,40202,大牟田市,Omuta-shi,33.017146,130.460387,0
1639,40,40203,久留米市,Kurume-shi,33.313495,130.538246,0
1640,40,40204,直方市,Nogata-shi,33.728356,130.728331,0
1641,40,40205,飯塚市,Iizuka-shi,33.670933,130.649704,0
1642,40,40206,田川市,Tagawa-shi,33.643903,130.814115,0
1643,40,40207,柳川市,Yanagawa-shi,33.168448,130.410958,0
1644,40,40210,八女市,Yame-shi,33.207555,130.549345,0
1645,40,40211,筑後市,Chikugo-shi,33.207351,130.494048,0
1646,40,40212,大川市,Okawa-shi,33.200967,130.3837,0
1647,40,40213,行橋市,Yukuhashi-shi,33.715394,130.978589,0
1648,40,40214,豊前市,Buzen-shi,33.586274,131.105541,0
1649,40,40215,中間市,Nakama-shi,33.818416,130.727969,0
1650,40,40216,小郡市,Ogori-shi,33.347642,130.541368,0
